立案时间,火警地址,纬度,经度,地理编码状态
2025/1/31 19:42,浦东新区 周浦镇 万达广场 宁波银行门口马路边,31.115754,121.570452,成功
2025/1/31 19:28,浦东新区 祝桥镇 航亭环路225弄210室 上海品乐酒店管理有限公司（人密场所）（消防处置）（到场处置）,31.099491,121.765477,成功
2025/1/31 19:30,浦东新区 三林镇 玉泉街77弄7号302室(华夏小区)（消防处置）（到场处置）,31.163725,121.493931,成功
2025/1/31 14:31,浦东新区 高行镇 金京路 靠近 东靖路（驻防车出动）（消防处置）（到场处置）,31.293738,121.618952,成功
2025/1/31 14:24,浦东新区 泥城镇 霞光路 乾耀东港24号（微站处置）（到场未处置）,30.901891,121.803635,成功
2025/1/31 13:35,浦东新区 张江镇 孙农路200弄68号（驻防车出动）（消防处置）（到场处置）,31.177877,121.624487,成功
2025/1/31 12:59,浦东新区 三林镇 东书房路390弄84号4楼（居民处置）（到场处置）,31.164035,121.531897,成功
2025/1/31 11:28,浦东新区 三林镇 西营南路11弄 新华苑停车场（消防处置）（到场处置）,31.162031,121.485555,成功
2025/1/31 4:51,浦东新区 周浦镇 瑞浦路287弄中虹佳园东区70号401室（消防处置）（到场处置）,31.095692,121.585085,成功
2025/1/30 23:17,浦东新区 周浦镇 瑞浦路77弄(欧风家园北区)56号502室（居民处置）（到场处置）,31.098028,121.587451,成功
2025/1/30 21:44,浦东新区 曹路镇 华谐路 靠近 秦家港路（消防处置）（到场处置）,31.261266,121.665504,成功
2025/1/30 23:06,浦东新区 三林镇 和炯路 靠近 林展路 依水园一期8号13楼（居民处置）（到场处置）,31.123988,121.510091,成功
2025/1/30 21:01,浦东新区 高行镇 双桥路1139弄(东源名都)7号门口（驻防车出动）（消防处置）（到场处置）,31.283498,121.616122,成功
2025/1/30 20:33,浦东新区 张江镇 申江路 靠近 沔北路（驻防车出动）（微站处置）（到场未处置）,31.165477,121.629575,成功
2025/1/30 19:33,浦东新区 康桥镇 川周公路2907号（微站处置）（到场处置）,31.142042,121.613746,成功
2025/1/30 19:24,浦东新区 康桥镇 创业路87弄 康桥新苑 北面桥下（消防处置）（到场处置）,31.142913,121.612464,成功
2025/1/30 15:25,浦东新区 川沙新镇 润川路 靠近 川周公路 河边草地上（消防处置）（到场处置）,31.160969,121.660641,成功
2025/1/30 14:59,浦东新区 曹路镇 川沙路669号（消防处置）（到场处置）,31.275429,121.670686,成功
2025/1/30 14:29,浦东新区 周家渡街道 南码头路1349弄18-19号(齐河小区)（EB）（微站处置）（到场处置）,31.182086,121.51648,成功
2025/1/30 14:12,浦东新区 高桥镇 大同路449号2楼浙新大酒店（消防处置）（到场处置）,31.342061,121.579922,成功
2025/1/30 12:49,浦东新区 川沙新镇 大川公路 靠近 闻居西路（消防处置）（到场处置）,31.125417,121.739436,成功
2025/1/30 11:39,浦东新区 书院镇洼港村6组813号农村自建房（消防处置）（到场处置）,31.081564,121.569854,成功
2025/1/29 23:04,浦东新区 泥城镇 云汉路1096弄54号201室（居民处置）（到场未处置）,30.911409,121.804755,成功
2025/1/30 1:48,浦东新区 潍坊新村街道 潍坊四村440号303室（消防处置）（到场处置）,31.218283,121.524164,成功
2025/1/29 20:49,浦东新区 祝桥镇 思凡南苑 49号（微站处置）（到场未处置）,31.139788,121.752022,成功
2025/1/29 19:12,浦东新区 川沙新镇 吉灿路17弄 桥下（烟花）（消防处置）（到场处置）,31.110264,121.705687,成功
2025/1/29 20:32,浦东新区 曹路镇 凌空北路东靖路口（驻防车出动）（微站处置）（到场未处置）,31.247353,121.699145,成功
2025/1/29 19:12,浦东新区 新场镇 申江南路 大治河北岸（专职队处置）（到场处置）,31.078859,121.646794,成功
2025/1/29 19:06,浦东新区 祝桥镇星光村前进4组463号农村自建房（消防处置）（到场处置）,31.118518,121.750025,成功
2025/1/29 18:37,浦东新区 泥城镇横港村民生8队559号旁（消防处置）（到场处置）,30.918218,121.850848,成功
2025/1/29 18:15,浦东新区 书院镇桃园村新六763号（消防处置）（到场处置）,31.207135,121.693661,成功
2025/1/29 16:02,浦东新区 泥城镇龙港村5队641号（微站处置）（到场处置）,31.135956,121.700273,成功
2025/1/29 14:16,浦东新区 南汇新城镇 世纪塘路 南汇嘴观海附近 堤顶路上（消防处置）（到场处置）,30.874434,121.961537,成功
2025/1/29 12:55,浦东新区 周浦镇 年家浜路339弄 停车场(中园小区)（居民处置）（到场处置）,31.11397,121.576683,成功
2025/1/29 7:24,浦东新区 洋泾街道 栖山路114号603室（消防处置）（到场处置）,31.242911,121.543628,成功
2025/1/29 3:54,浦东新区 洋泾街道 洋泾镇路89弄20号103室（消防处置）（到场处置）,31.241762,121.550338,成功
2025/1/29 2:54,浦东新区 宣桥镇 闵家浜路80弄22支弄7号1003室（居民处置）（到场未处置）,31.074859,121.721851,成功
2025/1/29 1:41,浦东新区 南汇新城镇 环湖南二路 靠近 小桉路（消防处置）（到场处置）,30.889423,121.963257,成功
2025/1/29 0:48,浦东新区 川沙新镇 川环南路148弄小区北门处（消防处置）（到场处置）,31.207135,121.693661,成功
2025/1/29 0:29,浦东新区 曹路镇 华东路 靠近 东靖路(烟花)（消防处置）（到场处置）,31.207135,121.693661,成功
2025/1/29 0:22,浦东新区 川沙新镇 川滨路 川虹新苑内 东南角最东侧一幢 树和草丛 近运盐河路（烟花）（微站处置）（到场未处置）,31.179926,121.714951,成功
2025/1/29 0:21,浦东新区 康桥镇 东明路 靠近 秀沿西路桥上（消防处置）（到场处置）,31.207135,121.693661,成功
2025/1/28 23:56,浦东新区 惠南镇 拱川路 靠近 听云路（居民处置）（到场未处置）,31.067618,121.75199,成功
2025/1/28 23:51,浦东新区 航头镇 航鹤路999弄391号（消防处置）（到场处置）,31.041389,121.585039,成功
2025/1/28 23:47,浦东新区 南码头街道 东三里桥路 靠近 胶南路（消防处置）（到场处置）,31.199633,121.509586,成功
2025/1/28 23:23,浦东新区 万祥镇新建村4队221号（居民处置）（到场未处置）,31.214008,121.725286,成功
2025/1/28 23:10,浦东新区 周浦镇 周秀路398弄10号楼旁边（驻防车出动）（居民处置）（到场处置）,31.09368,121.606395,成功
2025/1/28 22:58,浦东新区 高桥镇 陆凌新村23号 对面 石油新村（阳台）（消防处置）（到场处置）,31.348461,121.562661,成功
2025/1/28 22:30,浦东新区 航头镇 鹤沙路 金沁苑南区 13号802室（烟花）（驻防车出动）（阳台）（消防处置）（到场处置）,31.078396,121.60284,成功
2025/1/28 22:22,浦东新区 康桥镇 康新公路 靠近 康科路（消防处置）（到场处置）,31.135568,121.608188,成功
2025/1/28 21:55,浦东新区 周家渡街道 上南三村86号503室（居民处置）（到场处置）,31.174456,121.499236,成功
2025/1/28 21:55,浦东新区 三林镇 林恒路 靠近 林瞿路 路口北面（烟花）（消防处置）（到场处置）,31.118087,121.518949,成功
2025/1/28 21:12,浦东新区 周浦镇 公元三村 垃圾房（微站处置）（到场未处置）,31.121387,121.574862,成功
2025/1/28 21:04,浦东新区 惠南镇 项文路333弄20号1402室楼顶（消防处置）（到场处置）,31.04577,121.719325,成功
2025/1/28 20:57,浦东新区 航头镇 航定路 靠近 航梅路 聚航苑95号旁边停车场（居民处置）（到场处置）,31.029903,121.57926,成功
2025/1/28 20:55,浦东新区 宣桥镇 名望路 靠近 名园路（消防处置）（到场处置）,31.207135,121.693661,成功
2025/1/28 20:52,浦东新区 新场镇 沪南公路7406弄14号旁边垃圾房（消防处置）（到场处置）,31.028872,121.648516,成功
2025/1/28 20:49,浦东新区 老港镇 中港村中港2组1040号（微站处置）（到场未处置）,31.040254,121.83561,成功
2025/1/28 20:47,浦东新区 航头镇 环镇南路出口处（微站处置）（到场处置）,31.019177,121.589282,成功
2025/1/28 20:42,浦东新区 宣桥镇 笋王路 靠近 杨辉路（消防处置）（到场处置）,31.026261,121.662352,成功
2025/1/28 20:37,浦东新区 大团镇 赵桥村柴场8组646号（居民处置）（到场处置）,30.986038,121.738706,成功
2025/1/28 20:24,浦东新区 祝桥镇 千汇路1280弄33号12楼（消防处置）（到场处置）,31.127559,121.762963,成功
2025/1/28 20:19,浦东新区 周浦镇 瑞安路 靠近 瑞阳路（微站处置）（到场处置）,31.095794,121.589375,成功
2025/1/28 20:15,浦东新区 惠南镇 南汇汽车站旁边垃圾桶（其他社会力量处置）（到场未处置）,31.046742,121.764046,成功
2025/1/28 20:14,浦东新区 周浦镇 梓康路59弄175号（燃烧物燃尽）（到场未处置）,31.122365,121.572541,成功
2025/1/28 19:46,浦东新区 惠南镇 拱极路4100弄32号建新苑南苑1104室（消防处置）（到场处置）,31.054452,121.743952,成功
2025/1/28 19:40,浦东新区 万祥镇 新建村6组463号（消防处置）（到场处置）,31.081564,121.569854,成功
2025/1/28 19:27,浦东新区 川沙新镇 六灶镇其成村4组469号（消防处置）（到场处置）,31.022623,121.775526,成功
2025/1/28 19:19,浦东新区 康桥镇 康浦路 靠近 康弘路（烟花）（消防处置）（到场处置）,31.121263,121.600121,成功
2025/1/28 19:21,浦东新区 川沙新镇 学北路337弄(曙光东苑)（消防处置）（到场处置）,31.207135,121.693661,成功
2025/1/28 19:11,浦东新区 航头镇 兴城路18弄30号1楼(富田花苑)（消防处置）（到场处置）,31.028978,121.596096,成功
2025/1/28 19:09,浦东新区 川沙新镇 大洪佳苑 大门口对面（消防处置）（到场处置）,31.207135,121.693661,成功
2025/1/28 19:04,浦东新区 南汇新城镇 江山路1889弄临港17区火柴打击乐（消防处置）（到场处置）,30.869252,121.853823,成功
2025/1/28 18:56,浦东新区 惠南镇观海路1588弄 东南门 桥边（微站处置）（到场未处置）,31.065631,121.783585,成功
2025/1/28 19:00,浦东新区 祝桥镇 海霞路135弄南门（居民处置）（到场未处置）,31.167255,121.735948,成功
2025/1/28 18:41,浦东新区 合庆镇直属村270号（消防处置）（到场处置）,31.207135,121.693661,成功
2025/1/28 18:36,浦东新区 川沙新镇陈桥村135号门口（烟花）(到场处置),31.144572,121.691233,成功
2025/1/28 18:31,浦东新区 新场镇祝桥村6组519号（烟花）（微站处置）（到场处置）,31.081564,121.569854,成功
2025/1/28 18:24,浦东新区 康桥镇 康沈路515号 如家快捷酒店（消防处置）（到场处置）,31.137331,121.572549,成功
2025/1/28 18:09,浦东新区 宣桥镇 宣航路 靠近 宣中路 往南到底（消防处置）（到场处置）,31.021945,121.700977,成功
2025/1/28 18:06,浦东新区 合庆镇跃丰村2队 群丰农场仓库南侧（专职队处置）（到场处置）,31.228571,121.715371,成功
2025/1/28 18:08,浦东新区 南汇新城镇 海尚明徕苑 小区后面公园内（居民处置）（到场处置）,30.873274,121.858865,成功
2025/1/28 17:45,浦东新区 泥城镇海关村806号（消防处置）（到场处置）,31.207135,121.693661,成功
2025/1/28 15:10,浦东新区 张江镇 环科路 靠近 纳贤路（其他社会力量处置）（到场处置）,31.167664,121.606145,成功
2025/1/28 14:48,浦东新区 康桥镇 林海公路 靠近 年家浜路 近康涵路（消防处置）（到场处置）,31.116754,121.548574,成功
2025/1/28 14:01,浦东新区 祝桥镇 新营村张朱家宅40号农村自建房（消防处置）（到场处置）,31.196975,121.751978,成功
2025/1/28 13:06,浦东新区 周浦镇 周祝公路 靠近 水产路（燃烧物质燃尽）（到场未处置）,31.108682,121.648668,成功
2025/1/28 12:06,浦东新区 洋泾街道 羽山路801弄(巨东小区)17号门口树（微站处置）（到场处置）,31.235303,121.550447,成功
2025/1/28 11:58,浦东新区 曹路镇 东靖路 靠近 金钻路（消防处置）（到场处置）,31.282267,121.675858,成功
2025/1/28 11:20,浦东新区 惠南镇永乐村11组1151号 靠近 下盐路（消防处置）（到场处置）,30.88128,121.843079,成功
2025/1/28 11:11,浦东新区 新场镇 大治河 靠近 S3（消防处置）（到场处置）,31.207135,121.693661,成功
2025/1/28 10:53,浦东新区 潍坊新村街道 浦城路580弄18号2楼平台（驻防车出动）（居民处置）（到场未处置）,31.225174,121.514624,成功
2025/1/28 10:21,浦东新区 陆家嘴街道 招远路 靠近 即墨路（祭扫）（驻防车出动）（居民处置）（到场未处置）,31.240715,121.511729,成功
2025/1/28 0:04,浦东新区 川沙新镇 城南曙光停车内 生活垃圾分类收集站（消防处置）（到场处置）,31.207135,121.693661,成功
2025/1/27 23:12,浦东新区 川沙镇 七灶村西5队北张家宅12号门口（燃烧物燃尽）（到场未处置）,31.140287,121.705554,成功
2025/1/27 22:23,浦东新区 惠南镇 城南路 绿地峰汇（消防处置）（到场处置）,31.207135,121.693661,成功
2025/1/27 22:22,浦东新区 康桥镇 林海公路 靠近 秀沿西路（烟花）（消防处置）（到场处置）,31.129567,121.536582,成功
2025/1/27 21:38,浦东新区 曹路镇 华东路 靠近 顾路中学民冬校区（烟花）（消防处置）（到场处置）,31.288125,121.659368,成功
2025/1/27 21:33,浦东新区 新场镇 杨辉路 靠近 沪南公路（烟花）（微站处置）（到场未处置）,31.030616,121.658366,成功
2025/1/27 21:05,浦东新区 南码头街道 临沂路301弄26号401室(临沂五村)（居民处置）（到场未处置）,31.191322,121.511267,成功
2025/1/27 20:51,浦东新区 惠南镇 拱极路2626弄(新凤凰城)B区10号802室（消防处置）（到场处置）,31.064767,121.86696,成功
2025/1/27 20:39,浦东新区 机场镇东滨村张家宅21号旁边（消防处置）（到场处置）,31.170595,121.762506,成功
2025/1/27 20:37,浦东新区 康桥镇 秀沿路866弄35号门口（消防处置）（到场处置）,31.136383,121.570588,成功
2025/1/27 20:19,浦东新区 惠南镇 听云路238弄飞鸿苑西苑北面空地上（消防处置）（到场处置）,31.067384,121.751901,成功
2025/1/27 20:14,浦东新区 三林镇 三旋路506弄(绿波家园)东面马路对面（烟花）（消防处置）（到场处置）,31.119377,121.503,成功
2025/1/27 19:43,浦东新区 川沙新镇 齐芳路靠近 华东路 路口（烟花）（居民处置）（到场处置）,31.204643,121.675852,成功
2025/1/27 19:40,浦东新区 康桥镇 沿南小区 东面康达路（烟花）（消防处置）（到场处置）,31.121959,121.596643,成功
2025/1/27 19:37,浦东新区 周浦镇 韵涛路36弄对面工地（烟花）（消防处置）（到场处置）,31.10345,121.587784,成功
2025/1/27 19:37,浦东新区 惠南镇 城西路 靠近 汇成路口（消防处置）（到场处置）,31.207135,121.693661,成功
2025/1/27 19:26,浦东新区 川沙新镇 勤川路 靠近 德川路（烟花）（消防处置）（到场处置）,31.19209,121.66944,成功
2025/1/27 18:56,浦东新区 康桥镇 秀沿路1155弄308号斜对面(康桥半岛新城)（居民处置）（到场未处置）,31.143002,121.574103,成功
2025/1/27 18:55,浦东新区 合庆镇 前哨村徐家宅6队（居民处置）（到场未处置）,31.202653,121.760408,成功
2025/1/27 18:50,浦东新区 惠南镇 靖海路 靠近 拱晨路 红光花苑门口（微站到场）（到场未处置）,31.063548,121.771583,成功
2025/1/27 18:45,浦东新区 航头镇 长达村20组竹林（消防处置）（到场处置）,31.207135,121.693661,成功
2025/1/27 18:36,浦东新区 周浦镇 韵涛路36弄丰和雅苑17号 靠近 周东路（消防处置）（到场处置）,31.10345,121.587784,成功
2025/1/27 18:19,浦东新区 唐镇 玉盘南路 靠近 齐芳路（烟花）（居民处置）（到场未处置）,31.204643,121.675852,成功
2025/1/27 17:58,浦东新区 周浦镇 周祝公路 靠近 杨家南路 北面100米（燃烧物燃尽）（到场未处置）,31.115307,121.673164,成功
2025/1/27 16:33,浦东新区 川沙新镇 城丰路130弄(上浦小区)小区里面（微站处置）（到场未处置）,31.190777,121.688191,成功
2025/1/27 13:30,浦东新区 新场镇 沪南公路 靠近 新环西路 靠近 公交车站（专职队处置）（到场未处置）,31.022463,121.639936,成功
2025/1/27 12:08,浦东新区 泥城镇 彭平东路 靠近 玉宇路 （消防处置）（到场处置）,30.906671,121.800554,成功
2025/1/27 9:51,浦东新区 周浦镇 年家浜路28弄(逸亭佳苑)1号902室（消防处置）（到场处置）,31.114407,121.586008,成功
2025/1/26 19:28,浦东新区 祝桥镇 东港公路2902号东侧50米（消防处置）（到场处置）,31.083235,121.818501,成功
2025/1/26 16:47,浦东新区 康桥镇 康桥路1123弄6号(康桥华庭)（驻防车出动）（居民处置）（到场未处置）,31.134511,121.580145,成功
2025/1/26 15:01,浦东新区 书院镇 临港大道 靠近 两港大道（祭扫）（居民处置）（到场未处置）,30.906001,121.882084,成功
2025/1/26 10:10,浦东新区 浦兴路街道 东陆路898弄 70号3楼或4楼 楼道内（祭扫）（驻防车出动）（居民处置）（到场未处置）,31.273345,121.591536,成功
2025/1/26 6:21,浦东新区 周家渡街道 雪野路35号 优马卡丁车有限公司（消防处置）（到场处置）,31.181957,121.494502,成功
2025/1/25 21:37,浦东新区 惠南镇六灶湾村友爱442号（居民处置）（到场未处置）,31.018506,121.765402,成功
2025/1/25 20:40,浦东新区 华夏二路 靠近 平川路,31.179953,121.696366,成功
2025/1/25 20:38,浦东新区 玉盘北路288弄15号1002室 18621918938,31.225646,121.672371,成功
2025/1/25 20:36,浦东新区 大团镇周埠村 周埠路旁,30.996696,121.77125,成功
2025/1/25 20:31,浦东新区 三林镇 沐秀路 靠近 乔桉路（烟花）（微站处置）（到场未处置）,31.127844,121.530568,成功
2025/1/25 20:26,浦东新区 唐镇镇 龙东大道3800弄(棕榈泉花园)56号（消防处置）（到场处置）,31.226685,121.651732,成功
2025/1/25 19:39,浦东新区 新场镇 众安路879弄01号8楼（其他社会力量处置）（到场未处置）,31.029135,121.658232,成功
2025/1/25 18:25,浦东新区 新场镇 石笋东街 万科清林径别墅区南大门对面（祭扫）（居民处置）（到场未处置）,31.024297,121.65645,成功
2025/1/25 16:07,浦东新区 泥城镇 池月路678弄3号201室（居民处置）（到场处置）,30.907693,121.811979,成功
2025/1/25 16:01,浦东新区 张江镇 御桥路 靠近 金科路（微站处置）（到场未处置）,31.155317,121.558395,成功
2025/1/25 14:07,浦东新区 祝桥镇星光村9组553号 靠近 公交站台（微站处置）（到场未处置）,31.115828,121.770434,成功
2025/1/25 14:00,浦东新区 航头镇 环镇南路78号（消防处置）（到场处置）,31.01951,121.591541,成功
2025/1/25 11:19,浦东新区 航头镇 航鹤路78弄边上文化广场的公园（消防处置）（到场处置）,31.025187,121.58855,成功
2025/1/25 4:42,浦东新区 康桥镇 康桥东路1159弄105号 松港产业园（消防处置）（到场处置）,31.160203,121.634721,成功
2025/1/24 23:21,浦东新区 惠南镇 听潮四村26号（微站处置）（到场未处置）,31.04735,121.744946,成功
2025/1/24 17:56,浦东新区 张江镇 紫薇路750弄9号301室(兰沁苑)（经核实无需消防处置）（到场未处置）,31.206538,121.623853,成功
2025/1/24 14:37,浦东新区 金杨新村街道 栖山路1555弄34号301室(金樟花苑)（消防处置）（到场处置）,31.258536,121.564753,成功
2025/1/24 13:25,浦东新区 祝桥镇 南祝路5115号 靠近 天竹路（消防处置）（到场处置）,31.113347,121.756953,成功
2025/1/24 1:06,浦东新区 高东镇 竞赛村 顾高公路桥边上（驻防车出动）（微站处置）（到场处置）,31.299436,121.64936,成功
2025/1/23 22:19,浦东新区 三林镇 绿波家园2号地下车库（自动喷淋装置作用）（到场处置）,31.119043,121.501564,成功
2025/1/23 21:57,浦东新区 南码头路街道 东方路1881弄东方城市花园二期79号地下1层（EB）（自动喷淋装置作用）（到场未处置）,31.204339,121.519126,成功
2025/1/23 21:52,浦东新区 川沙新镇 川银路150弄16号(烟花)（消防处置）（到场处置）,31.192653,121.688564,成功
2025/1/23 21:52,浦东新区 康桥镇 秀沿西路 靠近 康颂路口（烟花）（消防处置）（到场处置）,31.129567,121.536582,成功
2025/1/23 21:30,浦东新区 祝桥镇 海霞路685弄 海霞佳苑小花园内 靠近 川南奉公路（消防处置）（到场处置）,31.049175,121.775558,成功
2025/1/23 18:00,浦东新区 南汇新城镇 广祥路18号 集卡服务中心附近（消防处置）（到场处置）,30.890678,121.862316,成功
2025/1/23 16:51,浦东新区 周浦镇 康恩路 靠近 康普路（消防处置）（到场处置）,31.207135,121.693661,成功
2025/1/23 14:59,浦东新区 祝桥镇 星火村小桥17组749号（消防处置）（到场处置）,31.07839,121.783898,成功
2025/1/23 14:41,浦东新区 高桥镇 新农村北项湾134号农村自建房（消防处置）（到场处置）,31.36178,121.555215,成功
2025/1/23 13:38,浦东新区 高东镇 高东馨苑15号楼401室（祭扫）（居民处置）（到场未处置）,31.329127,121.616911,成功
2025/1/23 12:06,浦东新区 航头镇 沪南公路5838号 上海五同同步带有限公司（消防处置）（到场处置）,31.027829,121.612599,成功
2025/1/23 10:38,浦东新区 高桥镇 张杨北路5568弄 弄堂内（居民处置）（到场处置）,31.343949,121.574461,成功
2025/1/23 10:07,浦东新区 航头镇 鹤沙路226弄鹤沙航城金沁苑北区12号1503室（驻防车出动）（消防处置）（到场处置）,31.08298,121.59791,成功
2025/1/23 9:36,浦东新区 周家渡街道 东明路383弄35号门口（祭扫）（经核实无需消防处置）,31.18252,121.510785,成功
2025/1/23 8:34,浦东新区 宣桥镇 下盐路 靠近 六奉公路 靠北（消防处置）（到场处置）,31.055193,121.69222,成功
2025/1/22 22:53,浦东新区 三林镇 蕉叶路 靠近 沐音路（消防处置）（到场处置）,31.131681,121.529358,成功
2025/1/22 20:49,浦东新区 惠南镇 康锦路 靠近 靖海南路（微站处置）（到场处置）,31.035521,121.767889,成功
2025/1/22 22:02,浦东新区 高行镇 德爱路380弄4号403室（燃烧物燃尽）（到场未处置）,31.300336,121.586184,成功
2025/1/22 20:29,浦东新区 周浦镇 沈梅东路209号A区02号 东北烧烤炒菜（九小场所—餐饮）（消防处置）（到场处置）,31.093134,121.587101,成功
2025/1/22 19:56,浦东新区 惠南镇 靖海南路567弄41号6楼（居民处置）（到场未处置）,31.034928,121.767997,成功
2025/1/22 14:46,浦东新区 北蔡镇 沪南路1087弄室外垃圾房旁边（驻防车出动）（居民处置）（到场未处置）,31.180418,121.555384,成功
2025/1/22 13:50,浦东新区 沪东新村街道 博兴路 博一小区内 小广场上（居民处置）（到场未处置）,31.266251,121.584578,成功
2025/1/22 9:19,浦东新区 金杨新村街道 栖山路1555弄 金樟花苑 32号903室（消防处置）（到场处置）,31.258536,121.564753,成功
2025/1/22 8:37,浦东新区 惠南镇团结村4组266号（到场未处置）,31.022623,121.775526,成功
2025/1/21 21:40,浦东新区 周浦镇 川周公路4293弄(文馨园)16号门口（居民处置）（到场未处置）,31.120432,121.581226,成功
2025/1/21 19:41,浦东新区 北蔡镇 北中路280弄19号202室(莲中二村)（祭扫）（驻防车出动）（燃烧物质燃烬）（到场未处置）,31.180101,121.55853,成功
2025/1/21 16:59,浦东新区 唐镇镇 虹盛路250弄12号202室（到场未处置）,31.241524,121.681001,成功
2025/1/21 12:42,浦东新区 花木街道 芳芯路251弄19号303室（消防处置）（到场处置）,31.192164,121.556512,成功
2025/1/21 11:52,浦东新区 曹路镇 东川公路 靠近 讯建路（消防处置）（到场处置）,31.278842,121.686378,成功
2025/1/21 10:50,浦东新区 川沙新镇 新德西路508弄(舒馨北苑)16号楼2楼（祭扫）（居民处置）（到场未处置）,31.190662,121.667465,成功
2025/1/21 8:40,浦东新区 书院镇 三三公路 滨海森林公园南门口（燃烧物质燃尽）（到场未处置）,30.963203,121.91092,成功
2025/1/20 18:12,浦东新区 张江镇 申江路5005弄2号楼北侧外墙 上海筱贝信息科技有限公司（消防处置）（到场处置）,31.209585,121.626638,成功
2025/1/20 18:03,浦东新区 南码头街道 临沂北路 靠近 龙阳路口 高架下面 南码头雕刻物 旁边（祭扫）（居民处置）（到场未处置）,31.188228,121.518456,成功
2025/1/20 4:23,浦东新区 周浦镇 环桥路1137弄（秀怡苑）17号3楼,31.13705,121.601998,成功
2025/1/20 13:21,浦东新区 惠南镇 通济路47弄13号农村自建房（居民自处）（消防处置）,31.043775,121.745982,成功
2025/1/19 20:22,浦东新区 花木街道 迎春路 靠近 紫槐路（祭扫）（燃烧物质燃尽）（到场未处置）,31.225854,121.562173,成功
2025/1/19 19:33,浦东新区 周家渡街道 成山路350弄15号（居民处置）（到场未处置）,31.170209,121.503929,成功
2025/1/19 17:58,浦东新区 宣桥镇 沪南公路8000号 靠近 申杰路门口（消防处置）（到场处置）,31.034651,121.683718,成功
2025/1/19 17:26,浦东新区 泥城镇 南芦公路 靠近 海学路 往东（消防处置）（到场处置）,30.927001,121.791645,成功
2025/1/19 16:02,浦东新区 东明路街道 上浦路 靠近 长清路（消防处置）（到场处置）,31.150611,121.49253,成功
2025/1/19 14:56,浦东新区 浦兴路街道 五莲路地铁站1号口外（微站处置）（到场未处置）,31.272025,121.587866,成功
2025/1/19 15:35,浦东新区 川沙新镇 川南奉公路 靠近 航殷路 路口北面（消防处置）（到场处置）,31.197886,121.739461,成功
2025/1/19 14:40,浦东新区 周浦镇 望春花路 靠近 康新公路围墙里（居民处置）（到场未处置）,31.095453,121.629544,成功
2025/1/19 13:09,浦东新区 洋泾街道 崮山路 靠近 灵山路 路口 北面桥边（微站处置）（到场处置）,31.227308,121.527318,成功
2025/1/19 14:23,浦东新区 张江镇 玉兰香苑4期54号602室（居民处置）（到场未处置）,31.200768,121.63702,成功
2025/1/19 12:50,浦东新区 塘桥街道 蓝村路470弄(文兰小区)14号401室（经核实无需消防处置）（到场未处置）,31.211245,121.525005,成功
2025/1/19 12:47,浦东新区 书院镇 临团公路 靠近 两港大道口（消防处置）（到场处置）,30.914347,121.891557,成功
2025/1/19 12:01,浦东新区 北蔡镇 博华路1018弄16号（驻防车出动）（其他社会力量处置）（到场未处置）,31.169054,121.552235,成功
2025/1/19 7:39,浦东新区 泥城镇 马厂村村委会北侧（消防处置）（到场处置）,31.207135,121.693661,成功
2025/1/18 18:24,浦东新区 曹路镇 滨源公路 不到 东靖路（消防处置）（到场处置）,31.275906,121.715919,成功
2025/1/18 19:17,浦东新区 南汇新城镇 白荆路 靠近 洛神花路路口（消防处置）（到场处置）,30.921166,121.938853,成功
2025/1/18 22:57,浦东新区 金杨新村街道 居家桥路 靠近 灵山路口（祭扫）（居民处置）（到场未处置）,31.252958,121.565793,成功
2025/1/18 18:11,浦东新区 川沙新镇纯新村 纯新南支路（消防处置）（到场处置）,31.135447,121.708036,成功
2025/1/18 15:26,浦东新区 康桥镇 沔新路599号附近（消防处置）（到场处置）,31.145328,121.637645,成功
2025/1/18 12:46,浦东新区 航头镇长达村长浜10组945号（消防处置）（到场处置）,31.142886,121.58853,成功
2025/1/18 7:24,浦东新区 周家渡街道 昌里东路190弄8号21楼(云台二小区)（祭扫）（居民处置）（到场未处置）,31.176341,121.508249,成功
2025/1/18 2:23,浦东新区 香楠路39弄17号,31.215758,121.61276,成功
2025/1/17 22:56,浦东新区 祝桥镇 施宏路 靠近 川南奉公路（消防处置）（到场处置）,31.049175,121.775558,成功
2025/1/17 23:02,浦东新区 塘桥街道 东方路1669弄8号9楼（消防处置）（到场处置）,31.205227,121.525958,成功
2025/1/17 22:35,浦东新区 康桥镇 梓康路580弄89号304室（燃烧物质燃尽）（到场处置）,31.12161,121.561418,成功
2025/1/17 18:42,浦东新区 南汇新城镇 云皓路518弄万达钻石湾7号楼下（其他社会力量处置）（到场未处置）,30.922929,121.918966,成功
2025/1/17 16:46,浦东新区 北蔡镇 鹏岳路152弄13号9楼（驻防车出动）（祭扫）（居民处置）（到场未处置）,31.170899,121.554118,成功
2025/1/17 16:23,浦东新区 书院镇洼港村五号路 靠近洼港 四灶路（消防处置）（到场处置）,30.967904,121.881378,成功
2025/1/17 15:37,浦东新区 曹路镇 华东路 靠近 顾明路 联之梦农场附近（消防处置）（到场处置）,31.207135,121.693661,成功
2025/1/17 13:56,浦东新区 高桥镇三岔港村唐家宅86号（消防处置）（到场处置）,31.373547,121.510717,成功
2025/1/17 13:11,浦东新区 张江镇 建中路461弄(建中小区)8栋1号101室（微站处置）（到场未处置）,31.19942,121.610543,成功
2025/1/17 13:43,浦东新区 惠南镇 听潮南路427弄23号1楼（消防处置）（到场处置）,31.029566,121.742793,成功
2025/1/17 12:59,浦东新区 张江镇 益江路286弄19号601室（微站处置）（到场未处置）,31.201341,121.633158,成功
2025/1/16 23:32,浦东新区 惠南镇 梅花新邨22号301室（燃烧物质燃尽）（到场处置）,31.050964,121.761584,成功
2025/1/17 12:01,浦东新区 祝桥镇星光村9组586号（微站处置）（到场未处置）,31.115828,121.770434,成功
2025/1/16 21:43,浦东新区 花木街道 莲溪路550弄26号503室(玉兰小区)（消防处置）（到场处置）,31.180932,121.560472,成功
2025/1/16 19:45,浦东新区 高桥镇 江东路1573号对面（消防处置）（到场处置）,31.207135,121.693661,成功
2025/1/16 19:43,浦东新区 曹路镇 龚华苑43号后面（消防处置）（到场处置）,31.262432,121.688592,成功
2025/1/16 18:26,浦东新区 浦兴路街道 胶东路855弄15号601室(金舟苑)（驻防车出动）（居民处置）（到场未处置）,31.261154,121.602596,成功
2025/1/16 17:51,浦东新区 陆家嘴街道 正大广场停车场出口旁边陆家嘴西路上花坛处（燃烧物质燃烬）（到场未处置）,31.230679,121.503197,成功
2025/1/16 13:03,浦东新区 周浦镇 芙蓉花路 靠近 青黛路 右边公园芦苇荡（驻防车出动）（燃烧物质燃尽）（到场未处置）,31.095787,121.619943,成功
2025/1/16 12:34,浦东新区 花木街道 牡丹路258弄9号601室（居民处置）（到场未处置）,31.207009,121.548805,成功
2025/1/16 8:24,浦东新区 惠南镇 东城花苑一村77号302室（居民处置）（到场未处置）,31.05134,121.766761,成功
2025/1/15 20:44,浦东新区 书院镇 老芦公路1367号 书院集贸市场（微站处置）（到场处置）,30.926595,121.866724,成功
2025/1/15 19:53,浦东新区 祝桥镇 公元2040小区 凉亭路门口 近河边（消防处置）（到场处置）,31.106707,121.76427,成功
2025/1/15 18:22,浦东新区 唐镇镇 创新中路 靠近 顾唐路 唐镇幼儿园 西面50米（消防处置）（到场处置）,31.207395,121.653873,成功
2025/1/15 17:54,浦东新区 周浦镇 周东路782弄22支弄(日月星城)7号701室（居民处置）（到场未处置）,31.125083,121.583207,成功
2025/1/15 17:10,浦东新区 宣桥镇季桥村蔡圈623号 农村自建房（居民处置）（到场处置）,31.056621,121.687623,成功
2025/1/15 16:47,浦东新区 康桥镇 上南路6881弄28号农村自建房（消防处置）（到场处置）,31.120135,121.565239,成功
2025/1/15 15:28,浦东新区 宣桥镇腰路村13组135号农村自建房（微站处置）（到场处置）,31.069598,121.720991,成功
2025/1/15 12:17,浦东新区 航头镇鹤鸣村32组附近 空地上（消防处置）（到场处置）,31.207135,121.693661,成功
2025/1/15 12:49,浦东新区 周家渡街道 雪野路34弄22号104室（消防处置）（到场处置）,31.182586,121.496995,成功
2025/1/14 23:56,浦东新区 高桥镇 草高支路170弄港城新苑3号1402室（经核实无需消防处置）（到场未处置）,31.352129,121.580609,成功
2025/1/14 21:32,浦东新区 曹路镇 龚路支路437弄康平佳苑12号1101室（居民处置）（到场处置）,31.263707,121.687578,成功
2025/1/14 21:05,浦东新区 唐镇镇 上丰路王港路口 星巴克门口（微站处置）（到场未处置）,31.235277,121.680476,成功
2025/1/14 20:02,浦东新区 惠南镇 南团公路 靠近 沪南公路 长安医院后面空地（其他社会力量处置）（到场未处置）,31.041507,121.763178,成功
2025/1/14 19:05,浦东新区 老港镇牛肚村3组420号和422号 棚子（消防处置）（到场处置）,31.034416,121.695938,成功
2025/1/14 19:19,浦东新区 高行镇 中冶尚城东二门（消防处置）（到场处置）,31.314207,121.584691,成功
2025/1/14 18:50,浦东新区 航头镇 牌楼村3组鹤立西路 靠近 长兴河路（消防处置）（到场处置）,31.052612,121.563182,成功
2025/1/14 15:49,浦东新区 北蔡镇 锦绣路2885弄23号702室(锦三角花园)（消防处置）（到场处置）,31.185595,121.542044,成功
2025/1/14 15:32,浦东新区 祝桥镇 千汇苑四村22号1楼（消防处置）（到场处置）,31.116338,121.76527,成功
2025/1/14 10:53,浦东新区 洋泾街道 博山路11弄 泾东小区38号301室（居民处置）（到场未处置）,31.245456,121.558747,成功
2025/1/14 4:45,浦东新区 高行镇 金地未未来 张扬北路出口旁 简易车棚（EB）（消防处置）（到场处置）,31.306607,121.587767,成功
2025/1/14 3:41,浦东新区 高桥镇 康悦路325弄浦凌佳苑14号704室,31.359822,121.534419,成功
2025/1/13 23:58,浦东新区 高行镇 莱阳路2450弄高海家苑8号401室（可燃物燃尽）（到场未处置）,31.311564,121.584688,成功
2025/1/13 19:54,浦东新区 泥城镇 抱雪路 迪尚酒店附近（消防处置）（到场处置）,31.207135,121.693661,成功
2025/1/13 15:14,【新】浦东新区 周浦镇 沈梅东路 靠近 瑞阳路 憩园（燃烧物质燃尽）（到场处置）,31.092174,121.588093,成功
2025/1/13 15:57,浦东新区 川沙新镇 川环南路 靠近 新太平桥河边（消防处置）（到场处置）,31.207135,121.693661,成功
2025/1/13 13:43,浦东新区 川沙新镇 六陈路999号 靠近 川沙路（燃烧物燃尽）（到场未处置）,31.151299,121.713052,成功
2025/1/13 12:35,浦东新区 陆家嘴街道 上海国金中心商场B2层（其他社会力量处置）（到场未处置）,31.236748,121.501773,成功
2025/1/13 12:24,浦东新区 川沙新镇 新吉村20组农村自建房（居民处置）（到场未处置）,31.109355,121.713066,成功
2025/1/13 9:53,浦东新区 惠南镇徐庙村10组426号农村自建房（消防处置）（到场处置）,31.142886,121.58853,成功
2025/1/12 21:35,浦东新区 北蔡镇 北中路247弄13号302室(莲宏苑)（驻防车出动）（其他社会力量处置）（到场未处置）,31.183824,121.55739,成功
2025/1/12 21:07,浦东新区 周浦镇 瑞阳苑A区42号楼下（居民处置）（到场未处置）,31.098602,121.589947,成功
2025/1/12 19:19,浦东新区 祝桥镇 尹家宅 中圩村33号（消防处置）（到场处置）,31.156458,121.75253,成功
2025/1/12 20:05,浦东新区 三林镇 上南路 靠近 东明路 招商甄境斜对面（消防处置）（到场处置）,31.207135,121.693661,成功
2025/1/12 18:52,浦东新区 曹路镇 云雅路400弄14号(同景苑)（居民处置）（到场处置）,31.244472,121.677613,成功
2025/1/12 18:49,浦东新区 康桥镇 康桥地铁站1号口附近（其他社会力量处置）（到场未处置）,31.135172,121.567649,成功
2025/1/12 15:45,浦东新区 沪东新村街道 柳埠路135弄（柳一小区）49号502室（消防处置）（到场处置）,31.261878,121.583388,成功
2025/1/12 16:51,浦东新区 高东镇 高宝路528弄47号门口（EB）（驻防车出动）（微站处置）（到场处置）,31.292897,121.627405,成功
2025/1/12 14:40,浦东新区 祝桥镇 凌空路 靠近 闻居西路（消防处置）（到场处置）,31.125417,121.739436,成功
2025/1/12 13:27,浦东新区 曹路镇 民建村徐家宅4队（微站处置）（到场未处置）,31.271344,121.650615,成功
2025/1/12 13:42,浦东新区 书院镇 临团公路 靠近 两港大道（微站处置）（到场未处置）,30.914347,121.891557,成功
2025/1/12 12:56,浦东新区 宣桥镇光辉村曙光北队236号（祭扫）（居民处置）（到场未处置）,31.06395,121.725832,成功
2025/1/12 11:38,浦东新区 南汇新城镇 花柏路 靠近 沪城环路 碧云壹号小区对面公园处（居民处置）（到场未处置）,30.894318,121.898435,成功
2025/1/12 11:18,浦东新区 三林镇 上南路 靠近 东明路（单位自处）（到场未处置）,31.157021,121.516814,成功
2025/1/12 11:05,浦东新区 惠南镇 拱鸣路95弄9号楼（祭扫）（居民处置）（到场未处置）,31.061313,121.741339,成功
2025/1/12 3:47,浦东新区 唐镇镇 龙东大道4288弄白金翰宫190号（消防处置）（到场处置）,31.222329,121.659693,成功
2025/1/12 10:50,浦东新区 三林镇 和融路55弄2号(士韵佳苑)104室（消防处置）（到场处置）,31.125052,121.499461,成功
2025/1/11 19:26,浦东新区 高东镇 高东新路靠近海徐路桥下（居民处置）（到场处置）,31.333909,121.619187,成功
2025/1/11 19:17,浦东新区 泥城镇 南芦公路 靠近 马五公路东面（消防处置）（到场处置）,30.901094,121.797247,成功
2025/1/11 16:54,浦东新区 周浦镇 瑞和路 靠近 周建路 复美大药房旁（驻防车出动）（居民处置）（到场未处置）,31.089181,121.592656,成功
2025/1/11 13:36,浦东新区 航头镇 鹤韵路549弄11幢门口（其他社会力量处置）（到场未处置）,31.074946,121.596065,成功
2025/1/11 13:31,浦东新区 高东镇 高宝路528弄桥边（驻防车出动）（微站处置）（到场未处置）,31.292897,121.627405,成功
2025/1/11 12:18,浦东新区 塘桥街道 微山二村 20号5楼（居民处置）（到场未处置）,31.207871,121.513163,成功
2025/1/11 13:27,浦东新区 上钢新村街道 长清路地铁站4号口停车场（消防处置）(到场处置),31.174648,121.485495,成功
2025/1/11 12:54,浦东新区 川沙新镇 航城路 靠近 施湾二路口北侧 尽头 中圩村（居民处置）（到场未处置）,31.156458,121.75253,成功
2025/1/11 12:08,浦东新区 川沙新镇 崇溪路小区后门田地内（消防处置）（到场处置）,31.207135,121.693661,成功
2025/1/11 10:25,浦东新区 祝桥镇 晚霞路715弄115号(天和湖滨)（其他社会力量处置）（到场处置）,31.180991,121.751734,成功
2025/1/11 9:10,浦东新区 祝桥镇 凌空路 靠近 川六公路（微站处置）（到场未处置）,31.155776,121.731196,成功
2025/1/11 3:39,浦东新区 泥城镇 青鸟路585弄碧桂园浦东星作3号302室（消防处置）（到场处置）,30.907098,121.806127,成功
2025/1/11 6:13,浦东新区 周浦镇 祝家港路90弄东南新村1号202室（消防处置）（到场处置）,31.108825,121.583978,成功
2025/1/10 23:25,浦东新区 泥城镇 南芦公路 靠近 鸿音路（燃烧物质燃尽）（到场处置）,30.883274,121.816014,成功
2025/1/10 20:45,浦东新区 宣桥镇 宣桥村李桥301号（居民处置）（到场未处置）,31.016782,121.717914,成功
2025/1/10 17:33,浦东新区 南码头街道 华丰路 靠近 临沂路口（其他社会力量处置）（到场未处置）,31.199684,121.520858,成功
2025/1/10 17:37,浦东新区 潍坊街道 潍坊路335弄1支弄21号202室 竹园新村（驻防车出动）（居民处置）（到场处置）,31.227561,121.53123,成功
2025/1/10 17:19,浦东新区 南汇新城镇 洋浩路 靠近 健祥路（燃烧物质燃尽）（到场未处置）,30.884705,121.862809,成功
2025/1/10 14:32,浦东新区 周浦镇 罗山南路秀浦路口 东十几米处围墙内（消防处置）（到场处置）,31.129482,121.601473,成功
2025/1/10 13:34,浦东新区 三林镇 同康苑5号901室（居民处置）（到场未处置）,31.121249,121.504351,成功
2025/1/10 12:43,浦东新区 周浦镇 周星路 靠近 繁荣路 公园内（消防处置）（到场处置）,31.10562,121.581358,成功
2025/1/10 8:18,浦东新区 川沙新镇 南桥路700号9号302室 永达城市公寓（居民处置）（到场未处置）,31.187723,121.695847,成功
2025/1/10 5:02,浦东新区 唐镇镇新虹村东包家宅175号2楼农村自建房（消防处置）（到场处置）,31.238934,121.649656,成功
2025/1/9 22:34,浦东新区 康桥镇 川周公路2788弄 桥上（微站处置）（到场未处置）,31.142041,121.613735,成功
2025/1/9 21:46,浦东新区 祝桥镇 晨阳西路150弄(凌港城)3号3楼（居民处置）（到场未处置）,31.171219,121.734276,成功
2025/1/9 21:37,浦东新区 南码头街道 临沂路101弄15号门口（祭扫）（居民处置）（到场未处置）,31.195848,121.514545,成功
2025/1/9 19:20,浦东新区 川沙新镇 川展路 靠近 川六公路（微站处置）（到场未处置）,31.155776,121.731196,成功
2025/1/9 15:17,浦东新区 康桥镇 秀沿路2585弄(文怡苑)一期6号602室（消防处置）（到场处置）,31.130621,121.535119,成功
2025/1/9 14:02,浦东新区 川沙新镇华路村 华路五队蒋家宅19号（消防处置）（到场处置）,31.193761,121.764779,成功
2025/1/9 13:11,浦东新区 周浦镇界浜村 窑墩路450号（消防处置）（到场处置）,31.11267,121.645228,成功
2025/1/9 13:44,浦东新区 陆家嘴街道 东园路 靠近 滨江大道（微站处置）（到场未处置）,31.241986,121.499941,成功
2025/1/9 12:34,浦东新区 康桥镇 康涵路58弄14号世茂云图小区栏杆外 靠近 河边（消防处置）（到场处置）,31.116329,121.546449,成功
2025/1/9 10:48,浦东新区 祝桥镇 三八村271号（消防处置）（到场处置）,31.207135,121.693661,成功
2025/1/8 22:24,浦东新区 书院镇 书院中学门口（烟花）（微站处置）（到场未处置）,30.928449,121.864341,成功
2025/1/8 21:07,浦东新区 惠南镇 听谐路86弄（民乐城锦园）26号601室（消防处置）（到场处置）,31.060557,121.735912,成功
2025/1/8 20:35,浦东新区 泥城镇 兴旺新村69号农村自建房（居民处置）（到场未处置）,30.896349,121.832057,成功
2025/1/8 18:02,浦东新区 川沙新镇 新吉村村委会后面（消防处置）（到场处置）,31.207135,121.693661,成功
2025/1/8 17:48,浦东新区 祝桥镇红三村13组252号农村自建房（消防处置）（到场处置）,31.069598,121.720991,成功
2025/1/8 15:25,浦东新区 航头镇丰桥村4组（居民处置）（到场未处置）,31.022623,121.775526,成功
2025/1/8 13:27,浦东新区 曹路镇 地铁9号线顾唐路3号出口垃圾桶（消防处置）（到场处置）,31.265325,121.656479,成功
2025/1/8 10:35,浦东新区 康桥镇 东明路 靠近 秀沿西路（消防处置）（到场处置）,31.207135,121.693661,成功
2025/1/8 9:53,浦东新区 北蔡镇 锦绣路3841弄绿川新苑27号101室（祭扫）（居民处置）（到场处置）,31.16768,121.546624,成功
2025/1/8 9:18,浦东新区 陆家嘴街道 招远路19弄23号5楼(招远小区)（居民处置）（到场处置）,31.237064,121.514938,成功
2025/1/8 9:13,浦东新区 北蔡镇 下南路339弄(南新三村) 43号601室（消防处置）（到场处置）,31.170237,121.544147,成功
2025/1/8 7:52,浦东新区 周浦镇 川周公路 靠近 周园路 安康新村门口（居民处置）（到场处置）,31.125831,121.588696,成功
2025/1/8 7:14,浦东新区 曹路镇顾三村7队16-17号（居民处置）（到场未处置）,31.125409,121.642313,成功
2025/1/7 20:40,浦东新区 康桥镇 沪南公路3223弄3号1401室（居民处置）（到场未处置）,31.124971,121.568086,成功
2025/1/7 19:46,浦东新区 周家渡街道 成山路226弄(上南九村)5号203室（居民处置）（到场未处置）,31.14771,121.513132,成功
2025/1/7 18:18,浦东新区 泥城镇 民生村13组479号后面（消防处置）（到场处置）,31.069598,121.720991,成功
2025/1/7 17:09,浦东新区 金杨新村街道 云山路 靠近 博山东路 红绿灯（其他社会力量处置）（到场未处置）,31.252385,121.56782,成功
2025/1/7 17:29,浦东新区 航头镇 龙华医院航头分院门诊门口（微站处置）（到场未处置）,31.033702,121.593057,成功
2025/1/7 10:46,浦东新区 浦兴路街道 牟平路56弄40号602室（荷三小区）（消防处置）（到场处置）,31.263783,121.598251,成功
2025/1/7 4:08,浦东新区 惠南镇 东城花苑二村46号别墅外（微站处置）（到场处置）,31.051167,121.770704,成功
2025/1/6 20:58,浦东新区 航头镇 航梅路525弄2支弄21号201室（驻防车出动）（燃烧物质燃尽）（到场未处置）,31.025744,121.577743,成功
2025/1/6 19:36,浦东新区 南码头路街道 临沂路101弄37号门口（祭扫）（居民处置）（到场未处置）,31.194966,121.514968,成功
2025/1/6 18:02,浦东新区 周浦镇牛桥村140号（居民处置）（到场未处置）,31.101361,121.599153,成功
2025/1/6 17:03,浦东新区 宣桥镇 南芦公路 靠近 宣黄公路 宣黄公路公交站 （微站处置）（到场未处置）,31.02508,121.735149,成功
2025/1/6 13:55,浦东新区 新场镇 S3 桥下 大治河南面（消防处置）（到场处置）,31.058429,121.64503,成功
2025/1/6 13:31,浦东新区 康桥镇 林海公路 靠近 秀浦路（消防处置）（到场处置）,31.207135,121.693661,成功
2025/1/6 12:38,浦东新区 三林镇 御青路328弄113号25栋(民乐苑)（微站处置）（到场未处置）,31.155952,121.572167,成功
2025/1/6 7:05,浦东新区 潍坊新村街道 潍坊西路 靠近 浦城路（其他社会力量处置）（到场处置）,31.225464,121.525221,成功
2025/1/5 23:48,浦东新区 张江镇 申江路7171弄东郊紫园121号（消防处置）（到场处置）,31.178417,121.623158,成功
2025/1/6 3:03,浦东新区 航头镇 沪南公路5651号上海岱美汽车零部件有限公司（消防处置）（到场处置）,31.027627,121.608902,成功
2025/1/5 21:09,浦东新区 航头镇梅园村5组460号（消防处置）（到场处置）,31.107822,121.563386,成功
2025/1/5 18:10,浦东新区 书院镇 两港大道枸青路口 桥下（消防处置）（到场处置）,31.207135,121.693661,成功
2025/1/5 19:38,浦东新区 高桥镇 双江路 靠近 随塘公路（微站处置）（到场未处置）,31.379424,121.543343,成功
2025/1/5 17:47,浦东新区 书院镇 唐港路1059弄60号301室（居民处置）（到场处置）,30.977195,121.864021,成功
2025/1/5 17:26,浦东新区 惠南镇 大川公路2383号 靠近 汇成路（消防处置）（到场处置）,31.032274,121.735015,成功
2025/1/5 14:46,浦东新区 书院镇 东大公路 滨海森林公园对面（微站处置）（到场未处置）,30.972608,121.910479,成功
2025/1/5 14:00,浦东新区 三林镇 浦三路2801弄(浦发绿城)18号602室（消防处置）（到场处置）,31.115839,121.549948,成功
2025/1/5 10:08,浦东新区 潍坊新村街道 潍坊七村730号103室（驻防车出动）（消防处置）（到场处置）,31.223594,121.521734,成功
2025/1/4 20:36,浦东新区 航头镇 航东村676号口袋公园（消防处置）（到场处置）,31.034361,121.602098,成功
2025/1/4 19:32,浦东新区 泥城镇 泥城路 靠近 南芦公路 农具新村1号101室（居民处置）（到场处置）,30.902539,121.829138,成功
2025/1/4 17:22,浦东新区 南汇新城镇 杉青路 靠近 洛神花路口 草地处 近杉云路（消防处置）（到场处置）,30.936708,121.93221,成功
2025/1/4 17:12,浦东新区 航头镇 航鸣路8号（单位自处）（到场未处置）,31.027905,121.603075,成功
2025/1/4 14:55,浦东新区 老港镇 南滨公路2088弄 上海老港生态环保基地（上海生物能源再利用三期工程）（一出动）（消防处置）（到场处置）,31.061831,121.87069,成功
2025/1/4 10:20,浦东新区 航头镇 鹤韵路601弄32号303室（驻防车出动）（居民处置）（到场处置）,31.073332,121.59705,成功
2025/1/4 7:38,浦东新区 三林镇 三林路868号张记茶叶有限公司109商铺（消防处置）（到场处置）,31.141762,121.509087,成功
2025/1/4 7:08,浦东新区 新场镇众安村唐桥615号农村自建房（消防处置）（到场处置）,31.207135,121.693661,成功
2025/1/4 5:26,浦东新区 新场镇 新艺路318弄1号（专职队处置）（到场未处置）,31.020797,121.641736,成功
2025/1/3 23:17,浦东新区 浦兴路街道 利津路1111弄47号2楼(东陆新村五街坊)（驻防车出动）（居民处置）（到场未处置）,31.278652,121.593647,成功
2025/1/3 22:28,浦东新区 祝桥镇 百熙路 靠近 航亭环路（燃烧物质燃尽）（到场未处置）,31.102658,121.761776,成功
2025/1/3 16:54,浦东新区 潍坊新村街道 潍坊路126弄潍坊十村5号403室（驻防车出动）（燃烧物质燃尽）（到场未处置）,31.223755,121.5238,成功
2025/1/3 13:42,浦东新区 张江镇 孙农路398弄(紫晶苑)75号前面（EB）（消防处置）（到场处置）,31.176546,121.62582,成功
2025/1/3 12:08,浦东新区 康桥镇 康涵路 靠近 渡桥路 河边 近世贸云图小区（居民处置）（到场未处置）,31.115317,121.54789,成功
2025/1/3 5:08,浦东新区 浦兴路街道 博兴路799弄（浦三小区）36号201室,31.265952,121.590493,成功
2025/1/2 22:32,浦东新区 三林镇 杨思路855弄申江豪城10号门口（消防处置）（到场处置）,31.164874,121.498487,成功
2025/1/2 20:47,浦东新区 康桥镇 御水路 靠近 康桥路 绿洲康城工地内顶楼（驻防车出动）（单位自处）（到场未处置）,31.148571,121.576041,成功
2025/1/2 16:52,浦东新区 惠南镇 民乐城惠园15号楼（居民处置）（到场未处置）,31.065745,121.736364,成功
2025/1/2 15:15,浦东新区 康桥镇 天雄路周祝公路口 靠近乐和城（其他社会力量处置）（到场未处置）,31.103395,121.612326,成功
2025/1/2 14:17,浦东新区 惠南镇 六灶湾村 惠农路墓地处（消防处置）（到场处置）,31.207135,121.693661,成功
2025/1/2 12:32,浦东新区 川沙新镇 新川路694号2楼203室（房东处置）（到场未处置）,31.191545,121.69285,成功
2025/1/1 20:54,浦东新区 唐镇镇机口村杨家宅25号（消防处置）（到场处置）,31.207135,121.693661,成功
2025/1/1 20:47,浦东新区 曹路镇 民耀路 靠近 民春路 路口（烟花）（微站处置）（到场未处置）,31.275143,121.666037,成功
2025/1/1 20:03,浦东新区 川沙新镇 华夏东路1260弄 东侧 川沙新镇沙田居委 院子内（消防处置）（到场处置）,31.196184,121.673226,成功
2025/1/1 19:26,浦东新区 唐镇 川沙路2015弄29号(大湾名苑)(烟花)（经核实无需消防处置）（到场未处置）,31.243481,121.686437,成功
2025/1/1 18:59,浦东新区 周浦镇 瑞福路 汇福家园兴盛里北区旁边 姚渔港桥下（烟花）（驻防车出动）（燃烧物燃尽）（到场未处置）,31.098105,121.605707,成功
2025/1/1 18:09,浦东新区 南汇新城镇 南港大道 靠近 堤顶路 西侧150米（消防处置）（到场处置）,30.874434,121.961537,成功
2025/1/1 17:17,浦东新区 北蔡镇 下南路320弄(文汇小区)37号604室（阳台）（居民处置）（到场未处置）,31.166539,121.540729,成功
2025/1/1 14:25,浦东新区 三林镇 杨思路1121弄（东方悦居）67号101室（微站处置）（到场未处置）,31.164202,121.50495,成功
2025/1/1 13:51,浦东新区 张江镇 三灶路65号上海京川工贸有限公司（驻防车出动）（微站处置）（到场处置）,31.177134,121.634426,成功
2025/1/1 13:11,浦东新区 新场镇 鹤坡园对面 过大治河（微站处置）（到场未处置）,31.014054,121.641999,成功
2025/2/28 17:12,浦东新区 川沙新镇长桥村村委会对面农庄内（消防处置）（到场处置）,31.207135,121.693661,成功
2025/2/28 15:01,浦东新区 祝桥镇 浦红西路 靠近 祝惠路（消防处置）（到场处置）,31.102499,121.739113,成功
2025/2/27 20:24,浦东新区 大团镇 汇民锦苑5号1403室（居民处置）（到场处置）,30.974848,121.754451,成功
2025/2/27 18:58,浦东新区 康桥镇 秀沿路836弄新中邦城市3号1702室（消防处置）（到场处置）,31.134979,121.571332,成功
2025/2/27 18:20,浦东新区 沪东新村街道 东波路195弄60号502室（居民处置）（到场处置）,31.285102,121.579925,成功
2025/2/27 14:03,浦东新区 塘桥街道 杨高南路 靠近 花木路（消防处置）（到场处置）,31.212537,121.556545,成功
2025/2/27 13:46,浦东新区 周浦镇 沪南公路 靠近 年家浜路（EB）（居民处置）（到场未处置）,31.113433,121.567644,成功
2025/2/27 12:21,浦东新区 唐镇镇 高科东路 阳光天地 后门门（居民处置）（到场处置）,31.214472,121.656053,成功
2025/2/26 21:46,浦东新区 惠南镇 听谐路73弄40号6楼-7楼楼道(民乐城康苑)（居民处置）（到场未处置）,31.057603,121.753008,成功
2025/2/26 17:03,浦东新区 洋泾街道 浦东大道1460弄34号201室(海院小区)（驻防车出动）（消防处置）（到场处置）,31.242215,121.535422,成功
2025/2/26 17:01,浦东新区 周浦镇 康沈路1404号-1号 鼎鑫面馆（九小场所-小餐饮）（（单位自处）（到场处置）,31.121782,121.575173,成功
2025/2/26 16:39,浦东新区 唐镇虹四村卫家宅156号 上海浦东协诚金属构件有限公司宿舍楼农村自建房（消防处置）（到场处置）,31.207135,121.693661,成功
2025/2/26 15:25,浦东新区 南汇新城镇 衫青路 靠近 耘艾路（燃烧物质燃尽）（到场未处置）,30.939832,121.944291,成功
2025/2/26 11:04,浦东新区 南汇新城镇 林团公路 靠近 银飞路 海昌公园门口（消防处置）（到场处置）,30.91457,121.903079,成功
2025/2/25 23:36,浦东新区 川沙新镇 川周公路 靠近 栏学路（EB）（微站处置）（到场处置）,31.166486,121.668732,成功
2025/2/25 20:09,浦东新区 高桥镇 江东路1586号往西（微站处置）（到场未处置）,31.36394,121.5474,成功
2025/2/25 18:10,浦东新区 三林镇 东育路1755弄 济阳路 靠近 S20 东侧200米（微站处置）（到场未处置）,31.150781,121.483397,成功
2025/2/25 17:08,浦东新区 曹路镇 金海华城华美佳苑小区西侧公园内（消防处置）（到场处置）,31.279174,121.674129,成功
2025/2/25 8:02,浦东新区 张江镇 申城佳苑1期A块34号903室（驻防车出动）（居民处置）（到场处置）,31.185057,121.639354,成功
2025/2/25 7:01,浦东新区 高东镇 竞赛村沈家宅4队159号（专职队处置）（到场未处置）,31.189496,121.52136,成功
2025/2/25 2:56,浦东新区 鹤立西路上 林海公路-沪南公路之间,31.024864,121.569394,成功
2025/2/25 1:36,浦东新区 康桥镇 锦绣路4890弄 惠康雅苑5号负1层非机动车库（驻防车出动）（EB）（消防处置）（到场处置）,31.150245,121.548092,成功
2025/2/24 21:30,浦东新区 张江镇 孙耀路111弄1号楼（驻防车出动）（经核实无需消防处置）,31.185451,121.635725,成功
2025/2/24 20:49,浦东新区 南汇新城镇 海基五路 靠近 海基六路（消防处置）（到场处置）,30.863126,121.913514,成功
2025/2/24 18:02,浦东新区 南汇新城镇 橄榄路 茉莉路口东侧的河边（消防处置）（到场处置）,31.207135,121.693661,成功
2025/2/24 20:19,浦东新区 金杨新村街道 德平路1189弄90支弄香山新村东南街坊11号（微站处置）（到场处置）,31.240149,121.571492,成功
2025/2/24 16:24,浦东新区 泥城镇 龙港北路 靠近 老芦公路 龙港五村（居民处置）（到场未处置）,30.905874,121.859785,成功
2025/2/24 11:31,浦东新区 张江镇 沈括路581号旁边的荒地（居民处置）（到场未处置）,31.190382,121.616188,成功
2025/2/24 9:56,浦东新区 金杨新村街道 银山路 靠近 金口路（其他社会力量处置）（到场未处置）,31.24681,121.579792,成功
2025/2/23 17:29,浦东新区 新场镇坦东村 村委会 北面（其他社会力量处置）（到场未处置）,31.069115,121.667354,成功
2025/2/24 6:35,浦东新区 沪东新村街道 博兴路250弄44号1楼(沪南小区)（居民处置）（到场未处置）,31.267909,121.580023,成功
2025/2/23 14:59,浦东新区 金杨新村街道 金口路471弄48号楼2楼（消防处置）（到场处置）,31.246145,121.582129,成功
2025/2/23 12:59,浦东新区 祝桥镇 金湾佳园7号302室（居民处置）（到场未处置）,31.141784,121.759589,成功
2025/2/23 12:34,浦东新区 南汇新城镇 芦潮港路2050弄1号上海都桥智科有限公司（单位自处）（到场处置）,30.895529,121.833913,成功
2025/2/23 11:39,浦东新区 三林镇 锦绣路 靠近 御桥路（祭扫）（居民处置）（到场未处置）,31.155317,121.558395,成功
2025/2/23 11:20,浦东新区 航头镇 下盐公路 靠近 沪南公路 立地东方苑82号1楼（驻防车出动）（居民处置）（到场处置）,31.067126,121.589983,成功
2025/2/23 11:21,浦东新区 宣桥镇 项埭村施桥204号（微站处置）（到场处置）,31.045487,121.704444,成功
2025/2/22 14:20,浦东新区 北蔡镇 陈春路 靠近 新浦路 东北方向旁（消防处置）（到场处置）,31.167965,121.536884,成功
2025/2/22 15:44,浦东新区 老港镇 沪南公路 靠近 两港公路（居民处置）（到场处置）,31.050211,121.855332,成功
2025/2/22 14:44,浦东新区 三林镇 林展路411弄(依水园)18号201室（驻防车出动）（经核实无需消防处置）（到场未处置）,31.122621,121.509466,成功
2025/2/22 7:25,浦东新区 惠南镇 荡湾新村 元家宅15号（微站处置）（到场处置）,31.040881,121.763927,成功
2025/2/22 12:02,浦东新区 惠南镇 宣黄公路 靠近 城西路（消防处置）（到场处置）,31.207135,121.693661,成功
2025/2/21 21:45,浦东新区 祝桥镇 千汇苑四村93号102室（微站处置）（消防处置）,31.117789,121.764216,成功
2025/2/21 12:17,浦东新区 曹路镇 日新村龚家宅16号农村自建房（消防处置）（到场处置）,31.065867,121.755731,成功
2025/2/21 14:41,浦东新区 金杨新村街道 金桥路1506弄15号门口（燃烧物质燃尽）（到场未处置）,31.249101,121.589414,成功
2025/2/21 19:09,浦东新区 三林镇 东育路1755弄门口 高架桥下绿化带（消防处置）（到场处置）,31.150781,121.483397,成功
2025/2/20 14:40,浦东新区 南汇新城镇 渔港路 靠近 世纪塘路（微站处置）（到场未处置）,30.847727,121.884031,成功
2025/2/20 23:59,浦东新区 潍坊新村街道 福山路519号(兴业嘉园)1109室（其他社会力量处置）（到场处置）,31.222471,121.532249,成功
2025/2/20 3:28,浦东新区 南码头街道 齐恒路118弄(浦虹苑)9号楼楼下（消防处置）（到场处置）,31.187192,121.520449,成功
2025/2/20 0:14,浦东新区 金杨新村街道 灵山路1671弄附近 香山中学外面操场西侧（微站处置）（到场处置）,31.239054,121.567406,成功
2025/2/19 18:36,浦东新区 宣桥镇 南六公路 靠近 光辉西路（微站处置）（到场未处置）,31.064606,121.707851,成功
2025/2/19 18:06,浦东新区 惠南镇 城南路995号农村自建房 （居民处置）（到场处置）,31.188758,121.692157,成功
2025/2/19 8:17,浦东新区 川沙新镇 吉灿路 爱家华城东区10号901室（消防处置）（到场处置）,31.110649,121.708584,成功
2025/2/19 9:36,浦东新区 惠南镇 黄路村富强326号（消防处置）（到场处置）,31.03013,121.762005,成功
2025/2/18 22:43,浦东新区 新场镇 申江南路 靠近 古丹路 城市快捷宾馆门口（微站处置）（到场未处置）,31.075626,121.640754,成功
2025/2/18 16:11,浦东新区 惠南镇 观海路 靠近 迎薰路口（居民处置）（到场处置）,31.040499,121.783237,成功
2025/2/18 14:38,浦东新区 高东镇 徐路村徐路镇3号 重庆小面（消防处置）（到场处置）,31.125299,121.554336,成功
2025/2/18 9:30,浦东新区 北蔡镇 北中路328弄(莲溪二村)11号101室（微站处置）（到场未处置）,31.183256,121.558453,成功
2025/2/18 8:02,浦东新区 周浦镇 周阳路399弄2号201室 汇福家园蔡丰里（驻防车出动）（消防处置）（到场处置）,31.092049,121.603293,成功
2025/2/18 7:09,浦东新区 唐镇镇 华东路 靠近 景雅路口（消防处置）（到场处置）,31.207135,121.693661,成功
2025/2/18 4:16,浦东新区 川沙新镇长桥村吴家宅56号农村自建房（消防处置）（到场处置）,31.172483,121.771552,成功
2025/2/18 0:49,浦东新区 南汇新城镇 江山路1889弄（临港17区）T3号楼318室（自动喷淋装置作用）（到场未处置）,30.869252,121.853823,成功
2025/2/17 20:50,浦东新区 金杨新村街道 金杨路273弄9号101室（居民处置）（到场未处置）,31.248114,121.574658,成功
2025/2/17 20:26,浦东新区 沪东新村街道 利津路51弄(汇佳苑)51号门口（烟花）（消防处置）（到场处置）,31.281552,121.578406,成功
2025/2/17 20:14,浦东新区 周浦镇 周阳路 靠近 瑞福路 桥上 安康里东区南边（燃烧物质燃尽）（到场未处置）,31.096828,121.603826,成功
2025/2/17 18:00,浦东新区 曹路镇 凌空北路 靠近 锦绣东路 路口（消防处置）（到场处置）,31.247353,121.699145,成功
2025/2/17 14:49,浦东新区 南汇新城镇 临团公路 靠近 塘下公路 往北（消防处置）（到场处置）,30.914347,121.891557,成功
2025/2/17 17:38,浦东新区 惠南镇六灶湾村 宣黄公路 靠近 为农路 北面（微站处置）（到场处置）,31.021359,121.764265,成功
2025/2/17 1:14,浦东新区 唐镇镇 创新中路399弄绿波城62号门口（EB）（消防处置）（到场处置）,31.207135,121.693661,成功
2025/2/16 21:29,浦东新区 周家渡街道 上南五村2号403室（消防处置）（到场处置）,31.179518,121.500118,成功
2025/2/17 1:09,浦东新区 高桥镇凌桥村2队三官桥西37号农村自建房（消防处置）（到场处置）,31.371053,121.530673,成功
2025/2/16 17:40,浦东新区 三林镇 林鸣路 靠近 东明路（经核实无需消防处置）（到场未处置）,31.207135,121.693661,成功
2025/2/16 17:26,浦东新区 高东镇 洲变路靠近张民路（驻防车出动）（微站处置）（到场未处置）,31.320345,121.636649,成功
2025/2/15 21:12,浦东新区 川沙新镇 川环北路94弄5号3楼（消防处置）（到场处置）,31.207135,121.693661,成功
2025/2/14 18:52,浦东新区 航头镇沈庄村846号,31.079258,121.582254,成功
2025/2/14 18:44,浦东新区 崂山二村33号202室,31.236367,121.520266,成功
2025/2/14 14:59,浦东新区 康桥镇 秀浦路428号 附近（消防处置）（到场处置）,31.124945,121.558445,成功
2025/2/14 12:28,浦东新区 潍坊新村街道 张杨路628弄9号（驻防车出动）（燃烧物质燃尽）（到场未处置）,31.22662,121.520399,成功
2025/2/14 12:05,浦东新区 老港镇 通源西路99号农村自建房（消防处置）（到场处置）,31.006955,121.870338,成功
2025/2/14 12:01,浦东新区 周浦镇 周园路 靠近 川周公路 公园内绿化带（消防处置）（到场处置）,31.124977,121.585611,成功
2025/2/13 20:48,浦东新区 鹤洁路346弄 鹤沙航城康乐苑 35号301室（驻防车出动）（居民处置）（到场未处置）,31.069157,121.603759,成功
2025/2/14 1:11,浦东新区 曹路镇 顾高公路3199号 上海沪东有色铸造联营厂 院子内（消防处置）（到场处置）,31.303737,121.673791,成功
2025/2/13 19:43,浦东新区 北蔡镇 北艾路1660弄(大华锦绣华城2-2街区)8号302室（消防处置）（到场处置）,31.179966,121.52258,成功
2025/2/13 18:59,浦东新区 惠南镇 人民西路 靠近 听潮路（消防处置）（到场处置）,31.053637,121.742021,成功
2025/2/13 19:31,浦东新区 张江镇 申城佳苑三期B块（驻防车出动）（消防处置）（到场处置）,31.180606,121.63718,成功
2025/2/13 7:00,浦东新区 南汇新城镇 港辉路308弄21号6楼(临港海滨国际花园)（其他社会力量处置）（到场未处置）,30.889007,121.817447,成功
2025/2/12 22:04,浦东新区 川沙新镇 华夏东路2345弄3号102室(水景豪苑)（居民处置）（到场未处置）,31.201261,121.698283,成功
2025/2/12 21:27,浦东新区 惠南镇 宝业万华城西门门口（烟花）（微站处置）（到场未处置）,31.026358,121.737378,成功
2025/2/12 21:21,浦东新区 曹路镇 金晓路289弄1号楼对面花园（消防处置）（到场处置）,31.275211,121.679021,成功
2025/2/12 21:20,浦东新区 三林镇 秀沿西路 靠近 东明路西面100米（烟花）（消防处置）（到场处置）,31.157021,121.516814,成功
2025/2/12 20:11,浦东新区 周浦镇 周秀路398弄后面河道边（烟花）（燃烧物质燃烬）（到场未处置）,31.093609,121.606433,成功
2025/2/12 20:02,浦东新区 康桥镇 上南路6333弄门口（烟花）（居民处置）（到场未处置）,31.119396,121.549253,成功
2025/2/12 19:44,浦东新区 宣桥镇 人民西路1533弄18号楼附近 靠近大川公路（驻防车出动）（微站处置）（到场未处置）,31.049027,121.726478,成功
2025/2/12 18:35,浦东新区 金杨新村街道 居家桥路1070弄19号103室（居民处置）（到场未处置）,31.24239,121.572012,成功
2025/2/11 23:24,浦东新区 孙桥镇沔北村曹家宅南49号（驻防车出动）,31.164306,121.630974,成功
2025/2/12 18:09,浦东新区 潍坊新村街道 浦城路720号(陈家宅小区)4号707室（驻防车出动）（消防处置）（到场处置）,31.221778,121.51551,成功
2025/2/11 20:00,浦东新区 宣桥镇 宣中路6号上海昌昶纺织有限公司（消防处置）（到场处置）,31.036187,121.703481,成功
2025/2/11 19:49,浦东新区 新场镇 新场大街417号农村自建房（微站处置）（到场未处置）,31.026271,121.646293,成功
2025/2/11 15:18,浦东新区 周浦镇 天雄路 六灶港河西北角（消防处置）（到场处置）,31.109321,121.59532,成功
2025/2/11 15:18,浦东新区 南汇新城镇 层林路139号靠近能源动力中心室外（单位自处）（到场未处置）,30.851582,121.833144,成功
2025/2/11 11:20,浦东新区 高桥镇 凌高路67弄（中凌滨江苑）9号11楼楼道 （保安处置）（到场未处置）,31.367711,121.54538,成功
2025/2/11 9:52,浦东新区 三林镇 懿行路 靠近 林展路（微站处置）（到场未处置）,31.124644,121.508269,成功
2025/2/10 22:47,浦东新区 惠南镇 听云路238弄民乐城鸿飞苑西苑（燃烧物燃尽）（到场处置）,31.060557,121.735912,成功
2025/2/10 17:09,浦东新区 祝桥镇 江镇西街 林荫艺术酒店 旁边 靠近海霞佳苑（消防处置）（到场处置）,31.170732,121.74694,成功
2025/2/10 17:08,浦东新区 新场镇 新环西路 靠近 北一路（专职队处置）（到场处置）,31.022463,121.639936,成功
2025/2/10 17:03,浦东新区 南汇新城镇 塘下公路 靠近 临团公路北面50米（微站处置）（到场未处置）,30.914347,121.891557,成功
2025/2/10 16:20,浦东新区 周浦镇 年家浜东路129弄路边 （消防处置）（到场处置）,31.11453,121.591682,成功
2025/2/10 14:44,浦东新区 北蔡镇 博华路237弄74号401室(文化馨苑)（居民处置）（到场处置）,31.183607,121.546882,成功
2025/2/10 13:10,浦东新区 航头镇 下盐路 靠近 鹤洁路（EB）（驻防车出动）（居民处置）（到场处置）,31.069286,121.602278,成功
2025/2/10 10:40,浦东新区 张江镇 青桐路358弄7号501室(中芯花园)（居民处置）（到场处置）,31.216761,121.622413,成功
2025/2/10 8:46,浦东新区 康桥镇 川周公路2832号沔溪苑沿街商铺2楼楼顶（消防处置）（到场处置）,31.143683,121.617538,成功
2025/2/10 8:32,浦东新区 周浦镇 秀浦路靠近康新公路龙游浦桥（微站处置）（到场未处置）,31.127334,121.616951,成功
2025/2/9 19:59,浦东新区 航头镇牌楼村13组446号边（消防处置）（到场处置）,31.051495,121.549469,成功
2025/2/10 8:37,浦东新区 上钢新村街道 德州七村 59号403室（消防处置）（到场处置）,31.165577,121.486699,成功
2025/2/9 17:42,浦东新区 高行镇 东靖路2250弄11号6楼(绿地崴廉公寓)（其他社会力量处置）（到场未处置）,31.290125,121.613755,成功
2025/2/9 17:36,浦东新区 合庆镇 运通路728弄24号楼门口（居民处置）（到场处置）,31.203081,121.702476,成功
2025/2/9 18:39,浦东新区 惠南镇团结村（微站处置）（到场未处置）,31.022623,121.775526,成功
2025/2/9 16:31,浦东新区 周浦镇姚桥村5组701号旁边（燃烧物质燃尽）（到场未处置）,31.107822,121.563386,成功
2025/2/9 13:58,浦东新区 川沙新镇 川沙镇杜尹村7队26号（消防处置）（到场处置）,31.125409,121.642313,成功
2025/2/9 17:27,浦东新区 祝桥镇 海霞路 靠近 江绣路 海霞佳苑旁公园（消防处置）（到场处置）,31.170531,121.746594,成功
2025/2/9 13:54,浦东新区 高桥镇 滨江森林公园内 海边 近海钓点（其他社会力量处置）（到场未处置）,31.381796,121.525474,成功
2025/2/9 12:15,浦东新区 书院镇 丰产路558号 靠近 东大公路（消防处置）（到场处置）,30.975801,121.848971,成功
2025/2/9 11:13,浦东新区 祝桥镇 盐朝公路汉高路口（消防处置）（到场处置）,31.207135,121.693661,成功
2025/2/9 10:49,浦东新区 曹路镇 金晓路星晓家园19号旁垃圾堆放点（消防处置）（到场处置）,31.277304,121.674734,成功
2025/2/9 6:50,浦东新区 瑞和路269弄(瑞浦嘉苑)3号,31.087192,121.588411,成功
2025/2/9 1:40,浦东新区 大团镇 金园村树园9组350号对面（消防处置）（到场处置）,30.9732,121.786311,成功
2025/2/8 19:11,浦东新区 花木街道 严杨路45弄外面（微站处置）（到场未处置）,31.19399,121.527399,成功
2025/2/8 18:44,浦东新区 航头镇 鹤涛路地铁站1号口 对面（消防处置）（到场处置）,31.07297,121.586164,成功
2025/2/8 13:50,浦东新区 南汇新城镇 塘下公路 靠近 洲德路 （微站处置）（到场未处置）,30.948591,121.909843,成功
2025/2/8 10:42,浦东新区 曹路镇 民耀路 靠近 民春路 古李园内 阳光花园对面（居民处置）（到场处置）,31.275143,121.666037,成功
2025/2/8 10:09,浦东新区 惠南镇 南门大街23号鑫通公寓37号（其他社会力量处置）（到场处置）,31.042078,121.752435,成功
2025/2/8 7:47,浦东新区 周浦镇 公元一村2幢6号402室（消防处置）（到场处置）,31.121454,121.576475,成功
2025/2/7 22:44,浦东新区 金阳新村街道 枣庄路212弄31号401室(黄山始信苑)（居民处置）（到场处置）,31.257795,121.571452,成功
2025/2/7 22:29,浦东新区 康桥镇 周园北路522弄12号802室(康湾苑)（居民处置）（到场未处置）,31.130648,121.587518,成功
2025/2/7 20:52,浦东新区 曹路镇 海鸣路 靠近 凌空北路（消防处置）（到场处置）,31.247353,121.699145,成功
2025/2/7 18:34,浦东新区 东明路街道 上南路4191弄(锦丽新苑)6号楼4楼（居民处置）（到场处置）,31.145344,121.510472,成功
2025/2/7 18:45,浦东新区 康桥镇 康桥路1118弄4号11楼(华虹东方苑)（驻防车出动）（居民处置）（到场未处置）,31.14806,121.570996,成功
2025/2/7 17:52,浦东新区 高东镇 龙漕路 靠近 华东路（微站处置）（到场未处置）,31.31982,121.649297,成功
2025/2/7 14:07,浦东新区 祝桥镇 海霞佳苑50号北侧（居民处置）（到场未处置）,31.170531,121.746594,成功
2025/2/7 12:45,浦东新区 祝桥镇 东亭路471弄(东都豪苑)26号前面（消防处置）（到场处置）,31.178518,121.753592,成功
2025/2/7 11:51,浦东新区 浦兴路街道 东陆路1268弄37号202室(东二小区)（驻防车出动）（消防处置）（到场处置）,31.266919,121.595187,成功
2025/2/7 9:18,浦东新区 川沙新镇 川周公路8682弄26号7楼楼道（其他社会力量处置）（到场处置）,31.183904,121.706729,成功
2025/2/6 20:23,浦东新区 周浦镇 界浜村7队491号旁边（微站处置）（到场未处置）,31.125409,121.642313,成功
2025/2/6 23:03,浦东新区 康桥镇 年家浜路 靠近 林海公路（消防处置）（到场处置）,31.024864,121.569394,成功
2025/2/6 19:03,浦东新区 曹路镇 凌空北路 靠近 锦绣东路口（消防处置）（到场处置）,31.247353,121.699145,成功
2025/2/6 18:40,浦东新区 宣桥镇 宣黄公路 吉园坊12号（微站处置）（到场未处置）,31.024434,121.737131,成功
2025/2/6 18:39,浦东新区 川沙新镇 平川路 靠近 川周公路 靠近杨家港河（可燃物质燃尽）（到场未处置）,31.160969,121.660641,成功
2025/2/6 17:50,浦东新区 花木街道 浦建路1288弄2号(锦绣苑)101室仓库（消防处置）（到场处置）,31.20585,121.541916,成功
2025/2/6 15:59,浦东新区 花木街道 花木路500弄(花木苑) 中心花园（消防处置）（到场处置）,31.209381,121.543462,成功
2025/2/6 17:41,浦东新区 曹路镇 凌空北路锦绣东路口（消防处置）（到场处置）,31.207135,121.693661,成功
2025/2/6 15:54,浦东新区 新场镇 沪南公路 靠近 申江南路（居民处置）（到场未处置）,31.078859,121.646794,成功
2025/2/6 15:34,浦东新区 康桥镇 康桥路1801弄222号(罗山绿洲别墅)（驻防车出动）（微站处置）（到场处置）,31.150449,121.590384,成功
2025/2/6 15:35,浦东新区 川沙新镇 宏基公寓西侧河边（消防处置）（到场处置）,31.207135,121.693661,成功
2025/2/6 12:36,浦东新区 南汇新城镇 环湖南三路 靠近 临隽路（燃烧物质燃烬）（到场处置）,30.873729,121.933294,成功
2025/2/6 12:21,浦东新区 周浦镇 周市路380弄20号楼10楼1003室 (信诚·丽都苑)（消防处置）（到场处置）,31.117299,121.581915,成功
2025/2/6 11:04,浦东新区 新场镇 沪南公路 靠近 杨辉路 路口停车场（微站处置）（到场未处置）,31.026261,121.662352,成功
2025/2/6 8:53,浦东新区 高东镇 光泽路428弄(高东馨苑)56号5楼（经核实无需消防处置）（到场未处置）,31.315017,121.635102,成功
2025/2/5 22:48,浦东新区 唐镇镇 齐爱路 靠近 银樽路 桥上（烟花）（消防处置）（到场处置）,31.215587,121.655539,成功
2025/2/5 18:29,浦东新区 南汇新城镇 古棕路250弄66号门口（其他社会力量处置）（到场处置）,30.883719,121.917462,成功
2025/2/5 18:27,浦东新区 川沙新镇 川沙路 靠近 华夏东路（燃烧物质燃烬）（到场处置）,31.200489,121.704485,成功
2025/2/5 12:41,浦东新区 宣桥镇 航三路 野生动物园地铁站往东200米（消防处置）（到场处置）,31.050325,121.699218,成功
2025/2/5 12:17,浦东新区 书院镇 两港大道 靠近 三三公路 西侧2公里（到场处置）,30.95399,121.904191,成功
2025/2/5 9:07,浦东新区 三林镇 高青路203号 祥灏汽车养护中心（消防处置）（到场处置）,31.15155,121.492487,成功
2025/2/5 7:47,浦东新区 三林镇 板泉路 靠近 浦三路（EB）（消防处置）（到场处置）,31.174249,121.52293,成功
2025/2/4 15:08,浦东新区 川沙新镇 川六公路285号（消防处置）（到场处置）,31.169115,121.713087,成功
2025/2/4 14:37,浦东新区 泥城镇 云汉路1096弄71号401室(荷风华庭)（消防处置）（到场处置）,30.911409,121.804755,成功
2025/2/4 13:30,浦东新区 川沙新镇 园二小区2支弄（居民处置）（到场处置）,31.188989,121.694411,成功
2025/2/4 13:08,浦东新区 南码头路街道 浦三路786弄31号103室轻工六里小区（居民处置）（到场处置）,31.183099,121.518755,成功
2025/2/4 11:16,浦东新区 祝桥镇 祝安苑126号1202室（消防处置）（到场处置）,31.124673,121.757175,成功
2025/2/3 19:54,浦东新区 川沙新镇 华沙一村11号601室（居民处置）（到场未处置）,31.190481,121.693785,成功
2025/2/3 15:53,浦东新区 三林镇 东书房路390弄93号13楼楼道 三林世博家园D区（居民处置）（到场未处置）,31.165057,121.535201,成功
2025/2/3 13:10,浦东新区 三林镇懿德村 新桥港河桥（EB）（消防处置）（到场处置）,31.1291,121.51421,成功
2025/2/3 2:06,浦东新区 书院镇四灶村果园6组114号,31.081564,121.569854,成功
2025/2/2 22:31,浦东新区 老港镇 成日新墅199号（消防处置）（到场处置）,31.061062,121.809471,成功
2025/2/2 7:40,浦东新区 祝桥镇星火村8组412号 盐仓小学南边（消防处置）（到场处置）,31.207135,121.693661,成功
2025/2/2 6:56,浦东新区 张江镇 农元路218号序知园林（驻防车出动）（消防处置）（到场处置）,31.173075,121.651366,成功
2025/2/2 2:23,浦东新区 宣桥镇 下盐路 靠近 宣六港东路（消防处置）（到场处置）,31.068331,121.701561,成功
2025/2/2 0:35,浦东新区 川沙新镇 新德西路511弄(新德佳苑)9号楼外（消防处置）（到场处置）,31.207135,121.693661,成功
2025/2/2 0:02,浦东新区 惠南镇 惠园路 靠近 靖海南路 东面100米（微站处置）（到场未处置）,31.034854,121.767853,成功
2025/2/1 23:12,浦东新区 洋泾街道 栖山路401弄(凌高小区)6号6楼（自动喷淋装置作用）（到场处置）,31.246718,121.549138,成功
2025/2/1 9:23,浦东新区 沪东新村街道 莱阳路218号401室（经核实无需消防处置）（到场未处置）,31.272374,121.579517,成功
2025/2/1 6:29,浦东新区 大团镇 团新村二团1682号隔壁农村自建房（消防处置）（到场处置）,31.013867,121.754522,成功
2025/3/31 18:09,浦东新区 泥城镇 两港大道 靠近 玉宇路（消防处置）（到场处置）,30.877574,121.805498,成功
2025/3/31 11:07,浦东新区 金杨新村街道 银山路370弄(金杨新村八街坊)3号2002室（微站处置）（到场处置）,31.24602,121.584299,成功
2025/3/31 10:03,浦东新区 高桥镇 杨高北路446弄东街名庭41号(高桥镇东街居民会)（消防处置）（到场处置）,31.345485,121.583404,成功
2025/3/31 1:45,浦东新区 民乐城秀园西苑9号1801室,31.066787,121.745299,成功
2025/3/30 19:40,浦东新区 康桥镇 沪南公路 靠近 秀沈路 周康一村北门（EB） （居民处置）（到场处置）,31.137207,121.568315,成功
2025/3/30 17:41,浦东新区 惠南镇 听达路185弄丽水雅苑北苑20号1303室（燃烧物燃尽）（到场处置）,31.071124,121.75485,成功
2025/3/30 13:04,浦东新区 曹路镇 上川路1468弄6号楼（祭扫）（经核实无需消防处置）,31.277122,121.663508,成功
2025/3/30 12:06,浦东新区 浦兴路街道 金杨路1055弄(金东名苑)2号3楼（微站处置）（到场处置）,31.257197,121.586695,成功
2025/3/30 11:38,浦东新区 浦兴路街道 凌河路618弄 正旺苑72号501室（祭扫）(驻防车出动）（居民处置）,31.271897,121.603084,成功
2025/3/30 11:26,浦东新区 高行镇 双桥路1139弄3号1楼(东源名都)（祭扫）（经核实无需消防处置）,31.283498,121.616122,成功
2025/3/30 11:18,浦东新区 高桥镇 石家街89号4楼（居民处置）（到场处置）,31.344092,121.580611,成功
2025/3/30 9:20,浦东新区 新场镇祝桥村一灶160号（居民处置）（到场未处置）,31.052099,121.675226,成功
2025/3/29 21:11,浦东新区 惠南镇 下盐路872-2号 陆楼多功能活动中心（其他社会力量处置）（到场未处置）,31.074219,121.765314,成功
2025/3/29 15:17,浦东新区 曹路镇民建村南邵家宅15号农村自建房（微站处置）（到场未处置）,31.274154,121.648814,成功
2025/3/29 11:04,浦东新区 川沙新镇 新川路640弄13号3楼（祭扫）（经核实无需消防处置）,31.207135,121.693661,成功
2025/3/29 11:00,浦东新区 周浦镇 周阳路259弄祥和里13号1702室（祭扫）（居民处置）,31.094094,121.602426,成功
2025/3/29 10:59,浦东新区 花木街道 牡丹路225弄1号4楼（祭扫）（经核实无需消防处置）,31.207787,121.547073,成功
2025/3/29 10:47,浦东新区 唐镇镇 唐镇路127弄唐人苑44号5楼（祭扫）（居民处置）,31.207333,121.649931,成功
2025/3/29 10:37,浦东新区 川沙新镇 华夏二路1500弄心圆西苑35号后面11楼（祭扫）（居民处置）,31.173546,121.691405,成功
2025/3/29 10:42,浦东新区 东明路街道 环林东路271弄金禾新苑10号10楼楼道内（祭扫）（居民处置）,31.149365,121.529573,成功
2025/3/29 10:11,浦东新区 花木街道 严镇路96弄由由六村24号5楼楼道（祭扫）（居民处置）,31.191044,121.528936,成功
2025/3/29 10:12,浦东新区 浦兴路街道 凌河路354弄(东陆新村二街坊)51号5楼（祭扫）（居民处置）,31.274026,121.5997,成功
2025/3/29 10:04,浦东新区 花木街道 牡丹路145弄牡丹小区35号1楼（祭扫）（居民处置）,31.207116,121.545249,成功
2025/3/29 9:40,浦东新区 三林镇南阜村60号（消防处置）（到场处置）,31.207135,121.693661,成功
2025/3/29 9:56,浦东新区 浦兴路街道 东陆路1268弄东二小区40号3楼（祭扫）（居民处置）,31.267703,121.596998,成功
2025/3/29 9:04,浦东新区 川沙新镇 运盐河路 妙虹新苑50号1104室（祭扫）（居民处置）（到场未处置）,31.183696,121.716866,成功
2025/3/28 10:35,浦东新区 合庆镇 庆利路425弄(海湾新城)10号室外（祭扫）（居民处置）（到场未处置）,31.231783,121.725711,成功
2025/3/28 8:17,浦东新区 浦兴路街道 凌河路354弄东陆新村二街坊39号401室（祭扫）（居民处置）（到场未处置）,31.274026,121.5997,成功
2025/3/28 7:47,浦东新区 南码头街道 东方路1881弄(东方城市花园)8号1202室（居民处置）（到场未处置）,31.204339,121.519126,成功
2025/3/28 7:17,浦东新区 上钢新村街道 昌里路311弄（上钢三村）3号301室（祭扫）（居民处置）（到场未处置）,31.173858,121.4921,成功
2025/3/27 16:13,浦东新区 金杨新村街道 云山路839弄黄山新城小区43号1001室（其他社会力量处置）（到场未处置）,31.253261,121.572287,成功
2025/3/27 12:33,浦东新区 潍坊新村街道 浦电路 潍坊四村434号303室（居民处置）（到场未处置）,31.218283,121.524164,成功
2025/3/27 11:08,浦东新区 三林镇 江耀路 靠近 钱家滩路（EB）（微站处置）（到场未处置）,31.151852,121.478449,成功
2025/3/27 5:13,浦东新区 三林镇 永泰路210号旁边（居民处置）（到场未处置）,31.142791,121.524573,成功
2025/3/27 8:16,浦东新区 北蔡镇 五星路154号 蘇小柳点心（九小—餐饮）（单位自处）（到场未处置）,31.212129,121.563318,成功
2025/3/27 5:07,浦东新区 曹路镇启明村毛家弄61号（居民处置）（到场未处置）,31.276302,121.687749,成功
2025/3/27 3:23,浦东新区 五星路707弄16号1楼（驻防车出动）,31.178131,121.57501,成功
2025/3/27 1:03,浦东新区 高桥镇陆凌村花山路33号-142（消防处置）（到场处置）,31.344814,121.563631,成功
2025/3/26 11:25,浦东新区 合庆镇庆星村五队徐家宅15号（祭扫）（居民处置）（到场未处置）,31.253857,121.737518,成功
2025/3/26 19:51,浦东新区 南汇新城镇 乔柏路 靠近 安茂路（微站处置）（到场处置）,30.914397,121.942912,成功
2025/3/26 9:59,浦东新区 书院镇 临港往机场方向 两港大道辅道 距临港大道500米（消防处置）（到场处置）,30.914731,121.924537,成功
2025/3/26 8:58,浦东新区 江东路300号旁边（微站处置）（到场处置）,31.375217,121.513744,成功
2025/3/26 5:39,浦东新区 新场镇 新场大街512弄22号1楼（驻防车出动）,31.028363,121.646306,成功
2025/3/26 2:24,浦东新区 航头镇 航梅路525弄 长达佳苑1支弄43号外（消防处置）（到场处置）,31.026294,121.577625,成功
2025/3/26 1:25,浦东新区 浦兴路街道 杨高中路268号 联想客户服务中心门口（燃烧物燃尽）（到场未处置）,31.252064,121.59537,成功
2025/3/25 19:43,浦东新区 高桥镇 东义路21弄小区7号102室（消防处置）（到场处置）,31.347444,121.585653,成功
2025/3/25 16:12,浦东新区 祝桥镇 千汇苑四村68号门口（居民处置）（到场未处置）,31.118007,121.767279,成功
2025/3/25 14:37,浦东新区 惠南镇 梅花路 靠近 拱极路（消防处置）（到场处置）,31.207135,121.693661,成功
2025/3/25 12:27,浦东新区 南汇新城镇 渔港路333弄 宝龙世家5号202室（其他社会力量处置）（到场处置）,30.868945,121.850307,成功
2025/3/25 12:13,浦东新区 川沙新镇 界龙村10队朱高家宅5号（消防处置）（到场处置）,31.175983,121.680511,成功
2025/3/25 11:00,浦东新区 唐镇镇 创新中路399弄(绿波城)34号（微站处置）（到场未处置）（祭扫）,31.210982,121.66686,成功
2025/3/25 2:41,浦东新区 宣桥镇腰路村13组328号前（消防处置）（到场处置）,31.069598,121.720991,成功
2025/3/25 4:51,浦东新区 黄楼镇界龙村朱高家宅5号农村自建房（消防处置）（到场处置）,31.175983,121.680511,成功
2025/3/24 21:54,浦东新区 高行镇 金高路988弄(春江花悦园)23号10楼（居民处置）（到场未处置）,31.285674,121.608059,成功
2025/3/24 21:44,浦东新区 曹路镇 金钻路398弄（金群苑南区）29号1602室（驻防车出动）（居民处置）（到场未处置）,31.287,121.670716,成功
2025/3/24 19:55,浦东新区 康桥镇 拯安路 靠近 康新公路（居民处置）（到场处置）,31.095453,121.629544,成功
2025/3/24 19:30,浦东新区 高行镇 高恒路 靠近 丹琦路（消防处置）（到场处置）,31.291547,121.596333,成功
2025/3/24 19:08,浦东新区 金杨新村街道 金杨路487号中国电信金杨路营业厅（EB）（居民处置）（到场处置）,31.249704,121.580138,成功
2025/3/24 18:08,浦东新区 泥城镇 正茂路 靠近 霜天路 黄沙港边上（居民处置）（到场未处置）,30.888382,121.819758,成功
2025/3/24 17:41,浦东新区 金杨新村街道 金台路115弄(金杨新村十街坊)27号501室（居民处置）（到场处置）,31.250156,121.582949,成功
2025/3/24 13:39,浦东新区 三林镇 板泉路907号 大叔烤肉（消防处置）（到场处置）,31.159682,121.499085,成功
2025/3/24 10:33,浦东新区 航头镇 下沙西街181号南面停车场内 （微站处置）（到场处置）,31.050016,121.586636,成功
2025/3/24 9:39,浦东新区 南汇新城镇 潮乐路20弄(新芦苑D)11号（祭扫）（经核实无需消防处置）,30.872946,121.850245,成功
2025/3/24 3:55,浦东新区 宣桥镇 宣黄公路 靠近 园西路 烧烤店门口（微站处置）（到场未处置）,31.034797,121.710229,成功
2025/3/23 22:40,浦东新区 南汇新城镇 江山路1889弄临港十七区T2楼710室（燃烧物质燃烬）（到场未处置）,30.869252,121.853823,成功
2025/3/23 20:19,浦东新区 三彩路277号对面 垃圾桶,31.121714,121.499519,成功
2025/3/23 20:09,浦东新区 金桥镇 庙港路188弄（申鸿苑）14号301室（其他社会力量处置）（到场未处置）,31.260632,121.638818,成功
2025/3/23 20:01,浦东新区 航头镇 沪南公路5999号秋缦和庭艺术中心的星星充电站处（专职队处置）（到场未处置）,31.027739,121.61749,成功
2025/3/23 19:39,浦东新区 祝桥镇 海霞路685弄 海霞佳苑49号5楼楼道（居民处置）（到场未处置）,31.169656,121.746787,成功
2025/3/23 19:21,浦东新区 上钢新村街道 上南路800弄上钢二村7号楼门口（经核实无需消防处置）（到场未处置）（祭扫）,31.176577,121.494719,成功
2025/3/23 18:24,浦东新区 合庆镇 锦绣东路辅路 靠近 郊野公园（消防处置）（到场处置）,31.207135,121.693661,成功
2025/3/23 17:30,浦东新区 川沙新镇 川环南路130弄(城南小区)17号楼（居民处置）（到场未处置）,31.189894,121.711097,成功
2025/3/23 12:57,浦东新区 书院镇 新北村石北462号门口（微站处置）（到场处置）,30.953736,121.863856,成功
2025/3/23 11:09,浦东新区 张江镇 益江路511弄(玉兰香苑)3号102室院子内（微站处置）（到场未处置）,31.198465,121.639433,成功
2025/3/23 10:05,浦东新区 洋泾街道 栖山路100弄栖山小区 54号4楼（消防处置）（到场处置）,31.241772,121.544772,成功
2025/3/22 23:49,浦东新区 川沙新镇 大洪村钱家宅18号农村自建房（消防处置）（到场处置）,31.187419,121.740711,成功
2025/3/22 23:20,浦东新区 航头镇 沪南公路5469弄(布丁酒店)214号505室（其他社会力量处置）（到场处置）,31.037092,121.597165,成功
2025/3/22 16:57,浦东新区 新场镇 古翠路 坦西坦北1075号（微站处置）（到场处置）,31.08387,121.645499,成功
2025/3/22 18:53,浦东新区 航头镇 航鹤路1698弄（鹤鸣新苑）40号门口（祭扫）（居民处置）（到场未处置）,31.051703,121.585274,成功
2025/3/22 16:51,浦东新区 周家渡街道 浦东南路4613号上南五村浦高小区2楼（微站处置）（到场处置）,31.179786,121.498414,成功
2025/3/22 16:03,浦东新区 高行镇 秋岚路251弄高行绿洲二期4号楼1002室（居民处置）（到场处置）,31.327929,121.593355,成功
2025/3/22 14:18,浦东新区 川沙新镇 川环南路 靠近 新太平桥口（消防处置）（到场处置）,31.207135,121.693661,成功
2025/3/22 12:19,浦东新区 外高桥保税区 富特北路379号门口（消防处置）（到场处置）,31.33558,121.60143,成功
2025/3/22 9:08,浦东新区 书院镇 两港大道 靠近 上海城柘建设工程有限公司 （车主处置）（到场未处置）,30.971605,121.887985,成功
2025/3/22 6:30,浦东新区 泥城镇 马五公路 靠近 正茂路（消防处置）（到场处置）,30.885462,121.810881,成功
2025/3/21 21:42,浦东新区 曹路镇 龚华路50弄(丰怡苑)17号402室（消防处置）（到场处置）,31.266769,121.683909,成功
2025/3/21 17:55,浦东新区 三林镇 云台路1000弄(翰城国际)11号楼对面 （微站处置）（到场未处置）,31.15489,121.511062,成功
2025/3/21 17:16,浦东新区 南汇新城镇 新元南路 靠近 两港大道 地面道路上（消防处置）（到场处置）,30.897809,121.874746,成功
2025/3/21 14:36,浦东新区 合庆镇友谊村东钱家宅52号（专职队处置）（到场处置）,30.993507,121.787007,成功
2025/3/21 14:14,浦东新区 宣桥镇 寅旺路 靠近 鸣晓路（祭扫）（燃烧物质燃尽）（到场未处置）,31.058879,121.707559,成功
2025/3/21 12:24,浦东新区 张江镇 集电路 靠近 张东路 （EB）（微站处置）（到场未处置）,31.210653,121.632752,成功
2025/3/21 9:10,浦东新区 高桥镇屯粮巷村潘家桥110号（消防处置）（到场处置）,31.35819,121.564245,成功
2025/3/21 0:30,浦东新区 浦兴路街道 荷泽路418弄好人家15号5楼（其他社会力量处置）（到场未处置）,31.267234,121.593098,成功
2025/3/21 0:08,浦东新区 祝桥镇新如村6号519号（消防处置）（到场处置）,31.207135,121.693661,成功
2025/3/20 22:12,浦东新区 川沙新镇南桥路707弄永达公寓31号2楼（消防处置）（到场处置）,31.207135,121.693661,成功
2025/3/20 21:50,浦东新区 泥城镇 同顺大道 秋祥路---春翔路（居民处置）（到场未处置）,30.902203,121.841994,成功
2025/3/20 14:08,浦东新区 泥城镇 新元南路 靠近 浩歌路（消防处置）（到场处置）,31.207135,121.693661,成功
2025/3/19 18:46,浦东新区 航头镇 环镇东路185弄（东升家园东区）19号901室 （消防处置）（到场处置）,31.019605,121.609275,成功
2025/3/19 18:39,浦东新区 周浦镇 周阳路 汇福家园祥和里东区5号楼门口（驻防车出动）（祭扫）（经核实无需消防处置）,31.094143,121.603695,成功
2025/3/19 18:03,浦东新区 北蔡镇 博华路498弄（陆家嘴锦绣里）9号（其他社会力量处置）（到场未处置）,31.234295,121.507513,成功
2025/3/19 14:34,浦东新区 祝桥镇 晨阳西路江晖路口 江晖苑对面（消防处置）（到场处置）,31.174363,121.738226,成功
2025/3/19 12:37,浦东新区 陆家嘴街道 陆家嘴环路凯宾四季大酒店对面（微站处置）（到场未处置）,31.237563,121.50806,成功
2025/3/19 12:19,浦东新区 上钢新村街道 西营路118号明珠花苑601室（居民处置）（到场处置）,31.168577,121.48369,成功
2025/3/18 19:31,浦东新区 万祥镇 振万路 靠近 祥凯路 万祥文体中心一期工程（专职队处置）（到场处置）,30.972378,121.81704,成功
2025/3/18 17:38,浦东新区 川沙新镇 城南路293弄城南居委居住小区12号1楼外阳台（消防处置）（到场处置）,31.207135,121.693661,成功
2025/3/18 13:09,浦东新区 书院镇 石家港路 靠近 两港大道 靠近工地（微站处置）（到场未处置）,30.906001,121.882084,成功
2025/3/18 7:29,浦东新区 周家渡街道 昌里东路699号沪小第上海老炝饼（单位自处）（到场未处置）,31.194551,121.513561,成功
2025/3/17 22:19,浦东新区 潍坊新村街道 潍坊路158号潍坊十村一小区201室（驻防车出动）（消防处置）（到场处置）,31.224832,121.525526,成功
2025/3/17 22:19,浦东新区 航头镇 罗山南路 靠近 航三路（驻防车出动）（消防处置）（到场处置）,31.129488,121.601844,成功
2025/3/17 16:36,浦东新区 康桥镇 林海公路上南路口跨线桥下面的桥洞处（居民处置）（到场未处置）,31.119138,121.543852,成功
2025/3/17 16:15,浦东新区 高行镇 行南路1150弄(南新西园)39号202室（经核实无需消防处置）（到场未处置）,31.328006,121.58242,成功
2025/3/17 13:49,浦东新区 航头镇长达村长浜524号门口（消防处置）（到场处置）,31.039991,121.561855,成功
2025/3/17 3:17,浦东新区 康桥镇 康桥路1633弄(绿洲康城亲水湾（东区）)6号902室（驻防车出动）（燃烧物燃尽）（到场处置）,31.149965,121.577998,成功
2025/3/17 3:00,浦东新区 张江镇 孙环路601弄(张江镇环西小区)142号旁边（居民处置）（到场未处置）,31.176825,121.641747,成功
2025/3/16 22:30,浦东新区 惠南镇 拱海路78弄民乐城惠康苑西苑（居民处置）（到场处置）,31.068684,121.738103,成功
2025/3/16 21:54,浦东新区 惠南镇 靖海南路504号 海燕居委门口（微站处置）（到场处置）,31.035984,121.767733,成功
2025/3/16 18:02,浦东新区 国际旅游度假区 周邓公路 往东 S2跨线桥上 （EB）（消防处置）（到场处置）,31.12172,121.655974,成功
2025/3/16 11:32,浦东新区 三林镇 板泉路2101弄(三林世博家园)31号1101室（驻防车出动）（消防处置）（到场处置）,31.165826,121.531577,成功
2025/3/16 10:51,浦东新区 东明路街道 环林东路879弄衫林新月家园17号16楼（居民处置）（到场未处置）,31.139706,121.529765,成功
2025/3/16 6:53,浦东新区 航头镇 长达村航梅路525弄（南郊艺墅）4支弄19号（消防处置）（到场处置）,31.024452,121.574242,成功
2025/3/16 6:04,浦东新区 川周公路4003弄52号101室 靠近 周园路,31.126657,121.588164,成功
2025/3/15 9:15,浦东新区 惠南镇 拱极路3028号汉庭酒店（单位自处）（到场处置）,31.054074,121.76028,成功
2025/3/14 15:11,浦东新区 祝桥镇 祝东村华星359号农村自建房（消防处置）（到场处置）,31.207135,121.693661,成功
2025/3/14 1:14,浦东新区 周浦镇 周秀路118弄(平安里南区)5号（驻防车出动）,31.099961,121.605285,成功
2025/3/13 20:20,浦东新区 惠南镇 惠东路 惠东新村625号4楼（微站处置）（到场未处置）,31.043571,121.772671,成功
2025/3/13 18:28,浦东新区 合庆镇 凌白公路1379弄门口（专职队处置）（到场未处置）,31.234967,121.750226,成功
2025/3/12 12:43,浦东新区 浦兴路街道 东陆路1528弄8号（驻防车出动）（微站处置）（到场未处置）,31.267144,121.600888,成功
2025/3/12 15:47,浦东新区 陆家嘴街道 浦东大道136弄(上港小区)甲28号103室（消防处置）（到场处置）,31.237912,121.514524,成功
2025/3/12 7:26,浦东新区 航头镇 下沙街北桥弄26号农村自建房（消防处置）（到场处置）,31.049241,121.592938,成功
2025/3/11 12:09,浦东新区 塘桥街道 南泉路1250弄塘桥小区4号1楼（其他社会力量处置）（到场未处置）,31.211558,121.522267,成功
2025/3/11 21:48,浦东新区 塘桥街道 东方路1523弄2号8楼（其他社会力量处置）（到场未处置）,31.209766,121.527576,成功
2025/3/11 7:45,浦东新区 祝桥镇 远东大道地铁站2号口外（消防处置）（到场处置）,31.19914,121.755346,成功
2025/3/10 19:34,浦东新区 航头镇 航昌路376弄瑞祥苑6号2701室（消防处置）（到场处置）,31.075017,121.609279,成功
2025/3/10 18:20,浦东新区 航头镇 罗山南路 靠近 航三路口（燃烧物燃尽）（到场未处置）,31.129488,121.601844,成功
2025/3/9 22:38,浦东新区 高东镇 新跃路1000弄（绿尚家园）4号楼9楼楼道（驻防车出动）（自动喷淋装置作用）（到场未处置）,31.319607,121.632215,成功
2025/3/9 14:53,浦东新区 东明路街道 永泰路630弄永泰花苑9号6楼（燃烧物质燃烬）（到场未处置）,31.137685,121.517714,成功
2025/3/9 14:56,浦东新区 航头镇 瑞和路 瓦屑幼儿园外河边（驻防车出动）（消防处置）（到场处置）,31.087152,121.589524,成功
2025/3/9 12:07,浦东新区 浦兴路街道 张杨北路588弄(金桥五街坊)64号402室（居民处置）（到场未处置）,31.253796,121.600891,成功
2025/3/9 11:02,浦东新区 南汇新城镇 环湖一路路口 靠近 南港大道 路边芦苇荡（消防处置）（到场处置）,31.207135,121.693661,成功
2025/3/9 10:04,浦东新区 新场镇祝桥村2组北电信塔东南方向200米（微站处置）（到场处置）,31.067055,121.67751,成功
2025/3/8 19:46,浦东新区 高行镇 东沟四村门口附近50米 近东沟路 近浦东大道（经核实无需消防处置）（到场未处置）,31.254641,121.554804,成功
2025/3/8 15:51,浦东新区 大团镇 海潮村沙庙 沙庙路东南侧100米（燃烧物质燃尽）（到场处置）,30.966332,121.762594,成功
2025/3/8 15:43,浦东新区 金杨新村街道 枣庄路658弄（金杨新村三街坊）56号北侧室外（EB）（微站处置）（到场未处置）,31.24975,121.577046,成功
2025/3/8 14:54,浦东新区 南汇新城镇 塘下路 靠近 临团公路（消防处置）（到场处置）,30.914347,121.891557,成功
2025/3/8 12:51,浦东新区 川沙新镇 高桥路 靠近 川展路 高桥村民活动中心东面的树林内（微站处置）（到场未处置）,31.167031,121.724135,成功
2025/3/8 10:49,浦东新区 惠南镇 拱极东路 靠近 盐大路近海长路（微站处置）（到场处置）,31.072718,121.7806,成功
2025/3/8 10:17,浦东新区 川沙新镇 润川路 靠近 川沙路（消防处置）（到场处置）,31.207135,121.693661,成功
2025/3/8 7:20,浦东新区 周家渡街道 南码头路1696弄昌四小区 31号101室（消防处置）（到场处置）,31.175947,121.514519,成功
2025/3/7 18:59,浦东新区 南汇新城镇 海洋五路 靠近 沪城环路（消防处置）（到场处置）,31.207135,121.693661,成功
2025/3/7 16:19,浦东新区 川沙新镇 城丰路70弄上浦小区11号401室（消防处置）（到场处置）,31.207135,121.693661,成功
2025/3/7 8:53,浦东新区 高行镇 金高路998弄（春江花悦苑）12号地下车库（驻防车出动）（消防处置）（到场处置）,31.283459,121.609751,成功
2025/3/7 8:11,浦东新区 南汇新城镇 港辉路308弄（临港海滨国际花园 ）53号地下车库（居民处置）（到场未处置）,30.889007,121.817447,成功
2025/3/7 1:55,浦东新区 惠南镇 靖海路547弄金地城46号301室（经核实无需消防处置）（到场未处置）,31.058038,121.767035,成功
2025/3/6 20:54,浦东新区 金桥镇 金葵路945弄门口（居民处置）（到场处置）,31.240301,121.62744,成功
2025/3/6 16:22,浦东新区 曹路镇龚丰村 龚丰路661号（消防处置）（到场处置）,31.258944,121.694137,成功
2025/3/6 12:38,浦东新区 康桥镇 林海公路 靠近 渡桥路 近世贸云图（消防处置）（到场处置）,31.115317,121.54789,成功
2025/3/5 15:07,浦东新区 三林镇 济阳路 靠近 三林路（消防处置）（到场处置）,31.141983,121.507899,成功
2025/3/4 23:50,浦东新区 陆家嘴街道 乳山路130弄（遂成小区）7号门口（祭扫）（居民处置）（到场未处置）,31.233579,121.524202,成功
2025/3/4 20:16,浦东新区 金杨新村街道 德平路1189弄香山新村东南街坊4号402室（居民处置）（到场处置）,31.240149,121.571492,成功
2025/3/4 12:16,浦东新区 惠南镇 听康路79弄文竹北苑3号1203室（居民处置）（到场未处置）,31.069422,121.748017,成功
2025/3/4 10:36,浦东新区 唐镇镇民丰村南黄家宅35号农村自建房（居民处置）（到场处置）,31.162776,121.660571,成功
2025/3/3 18:48,浦东新区 东明路街道 环林西路848弄(红枫苑)33号401室（居民处置）（到场处置）,31.139283,121.526078,成功
2025/3/3 8:49,浦东新区 惠南镇 黄家路20号（其他社会力量处置）（到场未处置）,31.025239,121.780316,成功
2025/3/3 5:48,浦东新区 南汇新城镇 洋浩路 靠江 江山路往北100米（居民处置）（到场处置）,30.869958,121.834709,成功
2025/3/2 23:16,浦东新区 洋泾街道 羽山路1445弄26号对面（祭扫）（经核实无需消防处置）（到场未处置）,31.242188,121.561696,成功
2025/3/2 23:02,浦东新区 洋泾街道 海防新村79号1楼（消防处置）（到场处置）,31.248589,121.552559,成功
2025/3/2 21:50,浦东新区 高行镇 兰嵩路 靠近 洲海路 迪卡侬门口（EB）（消防处置）（到场处置）,31.316776,121.611978,成功
2025/3/2 19:11,浦东新区 大团镇邵村村徐桥1组胡家宅路西边一条小路（消防处置）（到场处置）,31.011342,121.740336,成功
2025/3/2 19:08,浦东新区 南汇新城镇 夏栎路233弄203号楼下 靠近 雪绒花路（燃烧物质燃尽）（到场未处置）,30.910001,121.91778,成功
2025/3/2 18:17,浦东新区 唐镇 前进村唐家宅6号（居民处置）（到场未处置）,31.231786,121.63078,成功
2025/3/2 18:09,浦东新区 川沙新镇 翔展路近川同路东侧200米 坤孚园园区北侧的围墙外面（微站处置）（到场未处置）,31.160562,121.713116,成功
2025/3/2 17:51,浦东新区 老港镇 东河村西河七组 居委会旁（消防处置）（到场处置）,31.014136,121.862144,成功
2025/3/2 17:25,浦东新区 老港镇 两港大道 靠近 通源西路西侧（消防处置）（到场处置）,31.207135,121.693661,成功
2025/3/2 16:50,浦东新区 川沙新镇 栏杆村周奚家宅3号（居民处置）（到场处置）,31.170021,121.668927,成功
2025/3/2 11:27,浦东新区 航头镇 王楼村5组466号（驻防车出动）（到场处置）,31.107822,121.563386,成功
2025/3/2 8:51,浦东新区 惠南镇 黄路村富强664号农村自建房（消防处置）（到场处置）,31.03013,121.762005,成功
2025/3/2 1:35,浦东新区 华东路上 川沙健康公园正对面,31.17078,121.692021,成功
2025/3/1 22:00,浦东新区 曹路镇 龚路支路 靠近 人民塘 靠近 浦东殡仪馆外面（祭扫）（居民处置）（到场处置）,31.274532,121.719214,成功
2025/3/1 20:04,浦东新区 祝桥镇 施湾路 靠近 远航路（微站处置）（到场处置）,31.140909,121.760611,成功
2025/3/1 19:38,浦东新区 周浦镇 沪南路3468弄美林小城101号202室（居民处置）（到场未处置）,31.114902,121.563707,成功
2025/3/1 16:52,浦东新区 书院镇 临港大道 靠近 沪城环路（消防处置）（到场处置）,30.894318,121.898435,成功
2025/3/1 15:49,浦东新区 南汇新城镇 海洋五路 靠近 海基一路（消防处置）（到场处置）,31.207135,121.693661,成功
2025/3/1 15:12,浦东新区 南汇新城镇 滨果路 靠近 临港大道（消防处置）（到场处置）,30.950611,121.869881,成功
2025/3/1 12:43,浦东新区 川沙新镇 新德西路511弄 新德佳苑小区南侧 河边南侧树林（消防处置）（到场处置）,31.207135,121.693661,成功
2025/3/1 13:04,浦东新区 惠南镇 拱海路79弄惠康苑13号302室（其他社会力量处置）（到场处置）,31.06969,121.738266,成功
2025/3/1 11:52,浦东新区 金杨新村街道 张杨路 靠近 金桥路 路口（EB）（居民处置）（到场未处置）,31.249969,121.590724,成功
2025/3/1 11:17,浦东新区 航头镇 鹤永路 靠近 鹤雷路 河边（消防处置）（到场处置）,31.076681,121.599885,成功
2025/3/1 9:40,浦东新区 唐镇 勤川路 新德家园 河道旁（经核实无需消防处置）（到场未处置）,31.1906,121.677411,成功
2025/3/1 0:09,浦东新区 航头镇鹤鸣村13组957号旁边（居民处置）（到场未处置）,31.069598,121.720991,成功
2025/4/23 0:16,浦东新区 陆家嘴街道 东园四村420号旁边（居民处置）（到场未处置）,31.230663,121.51276,成功
2025/4/22 22:54,浦东新区 花木街道 芳华路411弄(芳华苑)17号1楼楼梯间（居民处置）（到场处置）,31.19479,121.55442,成功
2025/4/22 16:56,浦东新区 高东镇 新龙路69弄(杨园新苑)21号602室（其他社会力量处置）（到场未处置）,31.316139,121.629,成功
2025/4/22 18:42,浦东新区 南汇新城镇 宁祥路 靠近 同顺大道 东面30米（消防处置）（到场处置）,30.881818,121.868399,成功
2025/4/22 17:28,浦东新区 周浦镇 上南路6733弄(双秀花园西园A区)3号墙外（燃烧物质燃尽）（到场未处置）,31.120121,121.56229,成功
2025/4/21 23:42,浦东新区 金杨新村街道 浦东大道2641弄（寺前浜小区）15号（居民处置）（到场处置）,31.265188,121.569072,成功
2025/4/21 1:41,浦东新区 川沙新镇 华东路 靠近 新川路口 南面（消防处置）（到场处置）,31.207135,121.693661,成功
2025/4/21 6:11,浦东新区祝桥镇 晨阳西路 靠近 江绣路 往北200米（消防处置）（到场处置）,31.173248,121.735279,成功
2025/4/20 17:34,浦东新区 祝桥镇 航城三路675弄(盛世联弈苑)40号1001室（消防处置）（到场处置）,31.153163,121.754312,成功
2025/4/20 22:18,浦东新区 航头镇 瑞和路 靠近 瑞浦路（驻防车出动）（消防处置）（到场处置）,31.093431,121.584437,成功
2025/4/20 14:38,浦东新区 南汇新城镇 堤顶路 靠近 南港大道（消防处置）（到场处置）,30.881386,121.940825,成功
2025/4/20 16:57,浦东新区 祝桥镇 航殷路67号门口（消防处置）（到场处置）,31.199216,121.735673,成功
2025/4/20 13:21,浦东新区 祝桥镇 浦红西路 靠近 祝惠路（消防处置）（到场处置）,31.102499,121.739113,成功
2025/4/20 10:55,浦东新区 新场镇坦东村连南5组302号（专职队处置）（到场处置）,31.085432,121.664907,成功
2025/4/20 13:14,浦东新区 曹路镇 顾唐路 靠近 仁安路（微站处置）（到场未处置）,31.249269,121.662661,成功
2025/4/20 7:11,浦东新区 曹路镇 星火村陆家村45号农村自建房（消防处置）（到场处置）,31.254034,121.70171,成功
2025/4/19 22:26,浦东新区 祝桥镇 江通苑-江晖苑中间 桥下 河边（消防处置）（到场处置）,31.174033,121.736844,成功
2025/4/19 15:58,浦东新区 南码头街道 东三街102弄 东三小区 44号602室（消防处置)（到场处置）,31.20084,121.510371,成功
2025/4/19 11:43,浦东新区 洋泾街道 羽山路1000弄泾苑小区27号502室（阳台）（消防处置）（到场处置）,31.237427,121.557213,成功
2025/4/19 2:02,浦东新区 泥城镇 彩云路220弄（云帆花苑）11号202室（消防处置）（到场处置）,30.898957,121.814568,成功
2025/4/18 20:51,浦东新区 金杨新村街道 博山东路811弄(东方知音苑)85号室外门口（居民处置）（到场未处置）,31.25757,121.575742,成功
2025/4/18 19:43,浦东新区 北蔡镇 沪南路 往南 过成山路100米左右（EB）（微站处置）（到场处置）,31.170479,121.48972,成功
2025/4/18 17:51,浦东新区 南码头路街道 浦三路12弄（海浦小区)2号1201室,31.197645,121.51105,成功
2025/4/18 16:16,浦东新区 高桥镇西新村尖角圩33号农村自建房（专职队处置）（到场处置）,31.35583,121.517738,成功
2025/4/18 9:40,浦东新区 惠南镇 通济路280弄19号农村自建房（居民处置）（到场处置）,31.050821,121.746299,成功
2025/4/18 15:22,浦东新区 祝桥镇 和艺森路88号（消防处置）（到场处置）,31.198019,121.772316,成功
2025/4/18 9:06,浦东新区 泥城镇 云水路 靠近 彭平公路 （消防处置）（到场处置）,31.207135,121.693661,成功
2025/4/18 6:51,浦东新区 金杨新村街道 云山路1045弄(金杨新村二街坊)22号402室（消防处置）（到场处置）,31.247186,121.574598,成功
2025/4/17 19:53,浦东新区 高东镇 金京路 靠近 高宝路口（祭扫）（燃烧物质燃尽）（到场未处置）,31.290531,121.622073,成功
2025/4/17 18:25,浦东新区 张江镇 申江路 靠近 军民公路（驻防车出动）（微站处置）（到场处置）,31.172958,121.618988,成功
2025/4/16 21:34,浦东新区 三林镇 懿行路 靠近 林恒路 康德家园门口（消防处置）（到场处置）,31.120562,121.508235,成功
2025/4/16 18:26,浦东新区 康桥镇 御叶路 靠近 御秀路 北面50米（居民处置）（到场未处置）,31.15281,121.580467,成功
2025/4/16 9:58,浦东新区 康桥镇 拯安路 康城学校 后面北侧树林里（消防处置）（到场处置）,31.139125,121.614758,成功
2025/4/16 5:40,浦东新区 高青路 靠近 洪山路(车辆),31.165607,121.501928,成功
2025/4/15 16:15,浦东新区 新场镇 航三路 上海野生动物园地铁站 靠近 新场地铁站 之间（微站处置）（到场未处置）,31.038701,121.643248,成功
2025/4/15 23:03,浦东新区 高东镇 顾高公路 靠近 赵家沟桥（微站处置）（到场未处置）,31.296755,121.644099,成功
2025/4/15 15:07,浦东新区 宣桥镇 宣新路 靠近 六奉公路（消防处置）（到场处置）,31.053895,121.692449,成功
2025/4/15 12:01,浦东新区 曹路镇 海鸣路678弄海清佳苑11号-10号楼之间（消防处置）（到场处置）,31.287039,121.683286,成功
2025/4/15 14:38,浦东新区 南汇新城镇 杉青路 靠近 盛艾路口往东1公里路边（消防处置）（到场处置）,30.936708,121.93221,成功
2025/4/14 23:06,浦东新区 川沙新镇 栏杆村高顾家宅5号（消防处置）（到场处置）,31.171578,121.661035,成功
2025/4/14 18:03,浦东新区 祝桥镇 千汇路 靠近 祝潘公路 桥下（微站处置）（到场未处置）,31.125426,121.764642,成功
2025/4/14 12:24,浦东新区 三林镇 上南路4265弄(金光小区)68号302室（消防处置）（到场处置）,31.145794,121.511873,成功
2025/4/14 11:04,浦东新区 三林镇 杨新路80弄3号楼旁边（消防处置）（到场处置）,31.164038,121.493943,成功
2025/4/14 10:38,浦东新区 花木街道 杨高南路99弄 花木时光里二区B1 磁石汉堡（单位自处）（到场未处置）,31.207025,121.533673,成功
2025/4/14 11:52,浦东新区 周浦镇 康沈路1883弄门口（居民处置）（到场处置）,31.111845,121.579856,成功
2025/4/14 10:25,浦东新区 祝桥镇 航城三路86弄唐绿波庭45号302室（居民处置）（到场处置）,31.14886,121.744221,成功
2025/4/14 0:35,浦东新区 惠南镇 拱极路2626弄(新凤凰城东区）7号、8号楼之间的平台（燃烧物质燃烬）（到场未处置）,31.053248,121.775038,成功
2025/4/13 18:41,浦东新区 高东镇 园洲路189弄杨盛佳苑 122（物业处置）（到场处置）,31.31512,121.636217,成功
2025/4/13 17:18,浦东新区 高桥镇 张扬北路 靠近 杨高北路 辅道上（消防处置）（到场处置）,31.270813,121.58735,成功
2025/4/13 16:02,浦东新区 曹路镇 金钻路669弄佳伟景苑5号2楼（消防处置）（到场处置）,31.283354,121.67735,成功
2025/4/13 10:19,浦东新区 高行镇 行南路281弄41号（居民处置）（到场处置）,31.325539,121.587439,成功
2025/4/13 6:49,浦东新区 六灶镇 其成村新生17组533号室外（居民处置）（到场未处置）,31.10023,121.68388,成功
2025/4/12 21:43,浦东新区 航头镇 沪南公路 靠近 航鸣路,31.029937,121.602845,成功
2025/4/12 21:27,浦东新区 上钢新村街道 上钢六村7号302室,31.171952,121.489766,成功
2025/4/12 21:11,浦东新区 潍坊新村街道 潍坊路208弄(竹南小区)4号401室,31.2265,121.529531,成功
2025/4/12 20:42,浦东新区 张江镇 玉兰香苑二期C块门口（经核实无需消防处置）（到场未处置）,31.199092,121.626664,成功
2025/4/12 20:22,浦东新区 新场镇 新奉公路8弄8号门口（专职队处置）（到场处置）,31.026926,121.642006,成功
2025/4/12 18:03,浦东新区 宣桥镇 南六公路399弄(艺泰安邦花园)中心湖南侧（其他社会力量处置）（到场处置）,31.059091,121.710517,成功
2025/4/12 13:09,浦东新区 泥城镇 彩云路717弄(云树欣居)41号502室（消防处置）（到场处置）,30.898502,121.8038,成功
2025/4/12 10:05,浦东新区 唐镇 唐陆公路2313号（居民处置）（到场未处置）,31.225517,121.647271,成功
2025/4/11 20:28,浦东新区 大团镇 南芦公路1288号往南150米（燃烧物质燃尽）（到场未处置）,30.947859,121.771746,成功
2025/4/11 17:33,浦东新区 大团镇 扶栏村下塘208号门口 （消防处置）（到场处置）,30.99537,121.750367,成功
2025/4/11 15:35,浦东新区 周浦镇 周东路369号 周东菜场旁（消防处置）（到场处置）,31.11797,121.585503,成功
2025/4/11 14:08,浦东新区 唐镇镇 南曹路901弄（金利公寓）67号501室（消防处置）（到场处置）,31.207135,121.693661,成功
2025/4/10 23:12,浦东新区 三林镇 上南路3899弄(瀚林苑)67号01室（燃烧物燃尽）（到场未处置）,31.153061,121.503246,成功
2025/4/10 17:54,浦东新区 高行镇 东沟四村11幢28号301室（消防处置）（到场处置）,31.291009,121.574555,成功
2025/4/10 17:32,浦东新区 高桥镇 春晖路368弄30号201室（经核实无需消防处置）,31.340418,121.581922,成功
2025/4/10 17:21,浦东新区 上钢新村街道 德州五村222号101室（燃烧物质燃尽）（到场未处置）,31.167025,121.495416,成功
2025/4/10 17:18,浦东新区 周浦镇 佛手路 靠近 天雄路（其他社会力量处置）（到场未处置）,31.103395,121.612326,成功
2025/4/10 16:56,浦东新区 周浦镇 周邓公路6600弄(海尚乐苑)10号801室（居民处置）（到场未处置）,31.116305,121.60412,成功
2025/4/10 10:30,浦东新区 花木街道 锦安东路219弄(锦绣花木公寓)1号楼1101室（消防处置）（到场处置）,31.189017,121.560699,成功
2025/4/10 10:06,浦东新区 高桥镇 江东路300号旁边（微站处置）（到场未处置）,31.375217,121.513744,成功
2025/4/10 8:39,浦东新区 张江镇 孙环路377弄（申城佳苑）南面（驻防车出动）（消防处置）（到场处置）,31.159919,121.637722,成功
2025/4/10 4:08,浦东新区 浦兴路街道 东陆路1182弄 东一小区41号门口（驻防车出动）（微站处置）（到场处置）,31.269429,121.596708,成功
2025/4/9 21:33,浦东新区 唐镇镇 唐龙路 靠近 春泉路（消防处置）（到场处置）,31.207135,121.693661,成功
2025/4/9 17:50,浦东新区 高行镇 俱进路505弄(紫翠苑)靠近54号（微站处置）（到场处置）,31.300869,121.613715,成功
2025/4/9 14:15,浦东新区 川沙新镇 普新路 靠近 新浜路160号（祭扫）（消防处置）（到场处置）,31.129026,121.740372,成功
2025/4/9 14:24,浦东新区 高桥镇 江心沙路2451号门口（消防处置）（到场处置）,31.354383,121.518352,成功
2025/4/9 13:37,浦东新区 老港镇日新村 盐大路 附近的树林（消防处置）（到场处置）,31.207135,121.693661,成功
2025/4/9 9:46,浦东新区 三林镇 永泰路258弄(三林新村)12号404室（其他社会力量处置）（到场处置）,31.137174,121.506462,成功
2025/4/9 9:45,浦东新区 宣桥镇 下盐路 宣六港桥南面（燃烧物燃尽）（到场未处置）,31.064989,121.700638,成功
2025/4/8 18:15,浦东新区 大团镇 金石村董村652号门口（居民处置）（到场未处置）,30.953155,121.781976,成功
2025/4/8 15:01,浦东新区 花木街道 锦安东路270弄东城新村小区（祭扫）（经核实无需消防处置）（到场未处置）,31.1993,121.541289,成功
2025/4/8 14:30,浦东新区 泥城镇 马厂村水船三组712号农村自建房（消防处置）（到场处置）,30.920881,121.801496,成功
2025/4/8 12:52,浦东新区 新场镇 新南村大治17组370号（消防处置）（到场处置）,31.007945,121.637261,成功
2025/4/8 12:21,浦东新区北蔡镇 紫叶路192弄40号301室(紫一小区)（其他社会力量处置）（到场未处置）,31.182194,121.552219,成功
2025/4/8 11:37,浦东新区 惠南镇 听民路 靠近 拱秀路 北侧（居民处置）（到场未处置）,31.058378,121.759916,成功
2025/4/8 9:55,浦东新区 花木街道 锦绣路 靠近 锦和路（微站处置）（到场未处置）,31.202887,121.535944,成功
2025/4/7 22:45,浦东新区 三林镇 板泉路1201弄 （东方吉苑）18号4楼（其他社会力量处置）（到场未处置）,31.161681,121.505844,成功
2025/4/7 19:10,浦东新区 康桥镇 秀沿路 靠近 周园路（消防处置）（到场处置）,31.108899,121.59549,成功
2025/4/7 17:38,浦东新区 周浦镇 沈梅路188号旁边（其他社会力量处置）（到场未处置）,31.092466,121.574219,成功
2025/4/7 17:10,浦东新区 泥城镇 云汉路977弄(荷风翠庭)74号302室（消防处置）（到处处置）,30.91027,121.80683,成功
2025/4/7 10:18,浦东新区 浦兴路街道 凌河路200弄（林山小区）1号502室（居民处置）（到场未处置）,31.275545,121.596924,成功
2025/4/7 9:01,浦东新区 书院镇 船山街159弄15号 皖北全羊馆（消防处置）（到场处置）,30.978419,121.868346,成功
2025/4/7 0:54,浦东新区 塘桥街道 微山新村16号1楼（消防处置）（到场处置）,31.209498,121.515193,成功
2025/4/6 22:05,浦东新区 惠南镇 园中路 靠近 沪南公路 南侧（微站处置）（到场处置）,31.030616,121.658366,成功
2025/4/6 21:49,浦东新区 南码头街道 临沂一村78号旁（居民处置）（到场未处置）,31.198627,121.513153,成功
2025/4/6 17:04,浦东新区 合庆镇 川杨河路北侧 海塘桥北侧 墓地外围（消防处置）（到场处置）,31.215034,121.754615,成功
2025/4/6 17:02,浦东新区 东明路街道 环林东路875弄(杉林新月)17号1402室（消防处置）（到场处置）,31.140498,121.530225,成功
2025/4/6 13:35,浦东新区 南汇新城镇 申港大道 靠近 茉莉路（EB）（燃烧物质燃尽）（到场未处置）,30.897686,121.906762,成功
2025/4/6 11:36,浦东新区 康桥镇 御叶路67号 蜗艾蜗家艾公馆（驻防车出动）（自动喷淋装置作用）（到场未处置）,31.188162,121.551708,成功
2025/4/6 8:57,浦东新区 三林镇 上南路3855号门口（车主处置）（到场未处置）,31.151086,121.507078,成功
2025/4/5 20:26,浦东新区 祝桥镇红星村红一756号3楼农村自建房（消防处置）（到场处置）,31.092213,121.77251,成功
2025/4/5 18:00,浦东新区 康桥镇 康桥路 靠近 康安路 西北侧路口 （微站处置）（到场处置）,31.150039,121.557314,成功
2025/4/5 9:01,浦东新区 浦兴路街道 凌河路188弄（东陆三街坊）6号后门（驻防车出动）（微站处置）（到场未处置）,31.274996,121.596721,成功
2025/4/5 0:56,浦东新区 周浦镇 祝家港路255弄 丰汇雅苑11号附近（其他社会力量处置）（到场未处置）,31.110289,121.587493,成功
2025/4/4 23:15,浦东新区 南汇新城镇 沪城环路橄榄路（燃烧物质燃尽）（到场未处置）,30.889698,121.901372,成功
2025/4/4 20:47,浦东新区 张江镇 高科中路 靠近 盛夏路（微站处置）（到场处置）,31.207019,121.62927,成功
2025/4/4 18:46,浦东新区 宣桥镇光明村金光28组（微站处置）（到场未处置）,31.295444,121.637879,成功
2025/4/4 15:37,浦东新区 南汇新城镇 小桉路 靠近 环湖三路（消防处置）（到场处置）,30.889423,121.963257,成功
2025/4/4 13:13,浦东新区 北蔡镇 下南路340弄（文汇小区）34号（居民处置）（到场处置）,31.166539,121.540729,成功
2025/4/4 10:44,浦东新区 北蔡镇 莲溪路1099弄鹏裕苑2号楼西门门口（祭扫）,31.172133,121.565337,成功
2025/4/4 9:42,浦东新区 惠南镇 惠园路316号（微站处置）（到场未处置）,31.03008,121.767295,成功
2025/4/4 4:40,浦东新区 张江镇 广兰路1146号门口（居民处置）（到场未处置）,31.203579,121.621228,成功
2025/4/4 0:33,浦东新区 周家渡街道 浏河路 上南花苑西苑门口（祭扫）（居民处置）（到场未处置）,31.182639,121.503988,成功
2025/4/3 23:15,浦东新区 花木街道 紫槐路迎春路 路口人行道旁（祭扫）（居民处置）（到场未处置）,31.226506,121.561913,成功
2025/4/3 21:15,浦东新区 康桥镇 秀沿西路218号门口（祭扫）（居民处置）（到场未处置）,31.130621,121.535119,成功
2025/4/3 20:18,浦东新区 唐镇 创新西路199弄(瀚盛家园)46号3楼楼道（祭扫）（居民处置）（到场未处置）,31.200838,121.655168,成功
2025/4/3 20:09,浦东新区 浦兴路街道 台儿庄路 靠近 杨高中路口 台儿庄路地铁站电梯旁草丛（祭扫）（燃烧物质燃烬）（到场未处置）,31.252825,121.597458,成功
2025/4/3 20:01,浦东新区 南汇新城镇 古棕路250弄（绿地东岸涟城）27号304室（祭扫）（居民处置）（到场未处置）,30.883584,121.916654,成功
2025/4/3 19:39,浦东新区 张江镇 孙农路398弄紫荆苑后门（祭扫）（驻防车出动）（居民处置）,31.176546,121.62582,成功
2025/4/3 19:32,浦东新区 曹路镇 凌空北路 靠近 海纳路口（消防处置）（到场处置）,31.247353,121.699145,成功
2025/4/3 17:05,浦东新区 惠南镇 城南村一组232号 靠近 汇成路（消防处置）（到场处置）,31.207135,121.693661,成功
2025/4/3 16:57,浦东新区 书院镇 东大公路3001号（消防处置）（到场处置）,31.207135,121.693661,成功
2025/4/3 16:38,浦东新区 北蔡镇 锦绣路3088弄大华锦绣华城十二街区52号9楼楼道（其他社会力量处置）（到场未处置）,31.181654,121.539791,成功
2025/4/3 14:44,浦东新区 东明路街道 永泰路630弄(永泰花苑)62号（消防处置）（到场处置）,31.139487,121.517185,成功
2025/4/3 14:06,浦东新区 张江镇 孙建路111弄玫瑰湾123号（驻防车出动）（消防处置）（到场处置）,31.18217,121.626173,成功
2025/4/3 11:03,浦东新区 浦兴路街道 双桥路220弄（双桥小区）34号楼边（驻防车出动）（消防处置）（到场处置）,31.284537,121.595405,成功
2025/4/3 7:05,浦东新区 周家渡街道 浦东南路4250弄(雪野家园)3号501室（消防处置）（到场处置）,31.185396,121.499915,成功
2025/4/3 1:43,浦东新区 老港镇建港村港北555号农村自建房（微站处置）（到场处置）,31.028844,121.847866,成功
2025/4/2 22:22,浦东新区 曹路镇 巨峰路 靠近 上川路（EB）（消防处置）（到场处置）,31.277437,121.663121,成功
2025/4/2 19:01,浦东新区 南汇新城镇 海洋五路 近 海基三路（消防处置）（到场未处置）,30.869011,121.920854,成功
2025/4/2 16:41,浦东新区 塘桥街道 临沂北路255弄康乐花园1号楼底楼（其他社会力量处置）（到场处置）,31.203527,121.518748,成功
2025/4/2 15:52,浦东新区 大团镇 永旺路216号鑫雨门窗门口（居民处置）（到场处置）,30.974724,121.751489,成功
2025/4/2 12:38,浦东新区 周浦镇 北庄村 金朱路 靠近 窑港路（消防处置）（到场处置）,31.103822,121.665466,成功
2025/4/2 11:52,浦东新区 高东镇 高东二路86号品馨雅苑高东镇邻里中心（驻防车出动）（消防处置）（到场处置）,31.323834,121.625065,成功
2025/4/2 9:38,浦东新区 三林镇 板泉路2000弄(三林世博家园)6号1楼（居民处置）（到场处置）,31.165826,121.531577,成功
2025/4/2 9:30,浦东新区 南码头街道 临沂路81弄临沂八村5号304室（微站处置）（到场处置）,31.197295,121.515404,成功
2025/4/2 8:43,浦东新区 沪东新村街道 五莲路（无门牌号）沪东新村377号302室（消防处置）（到场处置）,31.272506,121.595914,成功
2025/4/2 8:10,浦东新区 川沙新镇 环东中心村桥弄钟家宅 近唐黄路（消防处置）（到场处置）,31.207135,121.693661,成功
2025/4/1 22:08,浦东新区 三林镇 东书房路560弄(三林世博家园)54号1204室（燃烧物燃尽）（到场未处置）,31.142053,121.506283,成功
2025/4/1 14:14,浦东新区 川沙新镇 大川公路 靠近 九曲东路（消防处置）（到场处置）,31.130693,121.727462,成功
2025/4/1 1:38,浦东新区 丁香路1399弄30号,31.229408,121.564196,成功
